%time,field.header.seq,field.header.stamp,field.header.frame_id,field.child_frame_id,field.pose.pose.position.x,field.pose.pose.position.y,field.pose.pose.position.z,field.pose.pose.orientation.x,field.pose.pose.orientation.y,field.pose.pose.orientation.z,field.pose.pose.orientation.w,field.pose.covariance0,field.pose.covariance1,field.pose.covariance2,field.pose.covariance3,field.pose.covariance4,field.pose.covariance5,field.pose.covariance6,field.pose.covariance7,field.pose.covariance8,field.pose.covariance9,field.pose.covariance10,field.pose.covariance11,field.pose.covariance12,field.pose.covariance13,field.pose.covariance14,field.pose.covariance15,field.pose.covariance16,field.pose.covariance17,field.pose.covariance18,field.pose.covariance19,field.pose.covariance20,field.pose.covariance21,field.pose.covariance22,field.pose.covariance23,field.pose.covariance24,field.pose.covariance25,field.pose.covariance26,field.pose.covariance27,field.pose.covariance28,field.pose.covariance29,field.pose.covariance30,field.pose.covariance31,field.pose.covariance32,field.pose.covariance33,field.pose.covariance34,field.pose.covariance35,field.twist.twist.linear.x,field.twist.twist.linear.y,field.twist.twist.linear.z,field.twist.twist.angular.x,field.twist.twist.angular.y,field.twist.twist.angular.z,field.twist.covariance0,field.twist.covariance1,field.twist.covariance2,field.twist.covariance3,field.twist.covariance4,field.twist.covariance5,field.twist.covariance6,field.twist.covariance7,field.twist.covariance8,field.twist.covariance9,field.twist.covariance10,field.twist.covariance11,field.twist.covariance12,field.twist.covariance13,field.twist.covariance14,field.twist.covariance15,field.twist.covariance16,field.twist.covariance17,field.twist.covariance18,field.twist.covariance19,field.twist.covariance20,field.twist.covariance21,field.twist.covariance22,field.twist.covariance23,field.twist.covariance24,field.twist.covariance25,field.twist.covariance26,field.twist.covariance27,field.twist.covariance28,field.twist.covariance29,field.twist.covariance30,field.twist.covariance31,field.twist.covariance32,field.twist.covariance33,field.twist.covariance34,field.twist.covariance35
38767000000,11361,38767000000,odom,base_footprint,3.034482350533496e-06,2.2694882848128164e-05,-0.0010073991487734094,-1.7740676700265068e-06,0.0015896502897893054,7.068123329652543e-05,0.9999987340056848,1e-05,0.0,0.0,0.0,0.0,0.0,0.0,1e-05,0.0,0.0,0.0,0.0,0.0,0.0,1000000000000.0,0.0,0.0,0.0,0.0,0.0,0.0,1000000000000.0,0.0,0.0,0.0,0.0,0.0,0.0,1000000000000.0,0.0,0.0,0.0,0.0,0.0,0.0,0.001,6.421947473060631e-07,1.1868483710855226e-06,0.0,0.0,0.0,7.695158619834352e-06,0.0,0.0,0.0,0.0,0.0,0.0,0.0,0.0,0.0,0.0,0.0,0.0,0.0,0.0,0.0,0.0,0.0,0.0,0.0,0.0,0.0,0.0,0.0,0.0,0.0,0.0,0.0,0.0,0.0,0.0,0.0,0.0,0.0,0.0,0.0,0.0
38802000000,11362,38793000000,odom,base_footprint,3.0414376418017725e-06,2.2714045156393385e-05,-0.0010073991487810421,-1.7741632961606016e-06,0.0015896502897076853,7.074140786060893e-05,0.9999987340014296,1e-05,0.0,0.0,0.0,0.0,0.0,0.0,1e-05,0.0,0.0,0.0,0.0,0.0,0.0,1000000000000.0,0.0,0.0,0.0,0.0,0.0,0.0,1000000000000.0,0.0,0.0,0.0,0.0,0.0,0.0,1000000000000.0,0.0,0.0,0.0,0.0,0.0,0.0,0.001,6.42198184784338e-07,1.1868585311180415e-06,0.0,0.0,0.0,7.695221741746526e-06,0.0,0.0,0.0,0.0,0.0,0.0,0.0,0.0,0.0,0.0,0.0,0.0,0.0,0.0,0.0,0.0,0.0,0.0,0.0,0.0,0.0,0.0,0.0,0.0,0.0,0.0,0.0,0.0,0.0,0.0,0.0,0.0,0.0,0.0,0.0,0.0
38834000000,11363,38830000000,odom,base_footprint,3.0486037123347506e-06,2.273378818383885e-05,-0.0010073991487889143,-1.7742618202810024e-06,0.0015896502896236364,7.08034060309949e-05,0.9999987339970419,1e-05,0.0,0.0,0.0,0.0,0.0,0.0,1e-05,0.0,0.0,0.0,0.0,0.0,0.0,1000000000000.0,0.0,0.0,0.0,0.0,0.0,0.0,1000000000000.0,0.0,0.0,0.0,0.0,0.0,0.0,1000000000000.0,0.0,0.0,0.0,0.0,0.0,0.0,0.001,6.422017258112853e-07,1.1868689972392316e-06,0.0,0.0,0.0,7.695286765355233e-06,0.0,0.0,0.0,0.0,0.0,0.0,0.0,0.0,0.0,0.0,0.0,0.0,0.0,0.0,0.0,0.0,0.0,0.0,0.0,0.0,0.0,0.0,0.0,0.0,0.0,0.0,0.0,0.0,0.0,0.0,0.0,0.0,0.0,0.0,0.0,0.0
38867000000,11364,38866000000,odom,base_footprint,3.055559028573504e-06,2.2752950575929245e-05,-0.001007399148796547,-1.7743574468460442e-06,0.0015896502895420125,7.08635808565467e-05,0.9999987339927795,1e-05,0.0,0.0,0.0,0.0,0.0,0.0,1e-05,0.0,0.0,0.0,0.0,0.0,0.0,1000000000000.0,0.0,0.0,0.0,0.0,0.0,0.0,1000000000000.0,0.0,0.0,0.0,0.0,0.0,0.0,1000000000000.0,0.0,0.0,0.0,0.0,0.0,0.0,0.001,6.422051629459761e-07,1.1868791561669273e-06,0.0,0.0,0.0,7.695349880567757e-06,0.0,0.0,0.0,0.0,0.0,0.0,0.0,0.0,0.0,0.0,0.0,0.0,0.0,0.0,0.0,0.0,0.0,0.0,0.0,0.0,0.0,0.0,0.0,0.0,0.0,0.0,0.0,0.0,0.0,0.0,0.0,0.0,0.0,0.0,0.0,0.0
38900000000,11365,38900000000,odom,base_footprint,3.062514357104508e-06,2.277211300929066e-05,-0.0010073991488041868,-1.7744530735911625e-06,0.0015896502894604027,7.092375581083186e-05,0.9999987339885132,1e-05,0.0,0.0,0.0,0.0,0.0,0.0,1e-05,0.0,0.0,0.0,0.0,0.0,0.0,1000000000000.0,0.0,0.0,0.0,0.0,0.0,0.0,1000000000000.0,0.0,0.0,0.0,0.0,0.0,0.0,1000000000000.0,0.0,0.0,0.0,0.0,0.0,0.0,0.001,6.422085999335061e-07,1.186889314704643e-06,0.0,0.0,0.0,7.695412993329365e-06,0.0,0.0,0.0,0.0,0.0,0.0,0.0,0.0,0.0,0.0,0.0,0.0,0.0,0.0,0.0,0.0,0.0,0.0,0.0,0.0,0.0,0.0,0.0,0.0,0.0,0.0,0.0,0.0,0.0,0.0,0.0,0.0,0.0,0.0,0.0,0.0
38934000000,11366,38934000000,odom,base_footprint,3.0696804660486007e-06,2.279185616568083e-05,-0.0010073991488120625,-1.7745515983339926e-06,0.0015896502893763171,7.098575438342179e-05,0.9999987339841142,1e-05,0.0,0.0,0.0,0.0,0.0,0.0,1e-05,0.0,0.0,0.0,0.0,0.0,0.0,1000000000000.0,0.0,0.0,0.0,0.0,0.0,0.0,1000000000000.0,0.0,0.0,0.0,0.0,0.0,0.0,1000000000000.0,0.0,0.0,0.0,0.0,0.0,0.0,0.001,6.422121416146333e-07,1.1868997826467546e-06,0.0,0.0,0.0,7.695478028256498e-06,0.0,0.0,0.0,0.0,0.0,0.0,0.0,0.0,0.0,0.0,0.0,0.0,0.0,0.0,0.0,0.0,0.0,0.0,0.0,0.0,0.0,0.0,0.0,0.0,0.0,0.0,0.0,0.0,0.0,0.0,0.0,0.0,0.0,0.0,0.0,0.0
38967000000,11367,38967000000,odom,base_footprint,3.076635819550949e-06,2.2811018682885292e-05,-0.0010073991488197057,-1.774647225501291e-06,0.0015896502892947324,7.10459295992304e-05,0.9999987339798408,1e-05,0.0,0.0,0.0,0.0,0.0,0.0,1e-05,0.0,0.0,0.0,0.0,0.0,0.0,1000000000000.0,0.0,0.0,0.0,0.0,0.0,0.0,1000000000000.0,0.0,0.0,0.0,0.0,0.0,0.0,1000000000000.0,0.0,0.0,0.0,0.0,0.0,0.0,0.001,6.422155776093286e-07,1.1869099382394542e-06,0.0,0.0,0.0,7.695541122673103e-06,0.0,0.0,0.0,0.0,0.0,0.0,0.0,0.0,0.0,0.0,0.0,0.0,0.0,0.0,0.0,0.0,0.0,0.0,0.0,0.0,0.0,0.0,0.0,0.0,0.0,0.0,0.0,0.0,0.0,0.0,0.0,0.0,0.0,0.0,0.0,0.0
39000000000,11368,38992000000,odom,base_footprint,3.0835911853654974e-06,2.2830181241403128e-05,-0.0010073991488273489,-1.7747428528897062e-06,0.0015896502892131128,7.110610494390321e-05,0.9999987339755638,1e-05,0.0,0.0,0.0,0.0,0.0,0.0,1e-05,0.0,0.0,0.0,0.0,0.0,0.0,1000000000000.0,0.0,0.0,0.0,0.0,0.0,0.0,1000000000000.0,0.0,0.0,0.0,0.0,0.0,0.0,1000000000000.0,0.0,0.0,0.0,0.0,0.0,0.0,0.001,6.422190157482583e-07,1.1869201002464943e-06,0.0,0.0,0.0,7.695604257011996e-06,0.0,0.0,0.0,0.0,0.0,0.0,0.0,0.0,0.0,0.0,0.0,0.0,0.0,0.0,0.0,0.0,0.0,0.0,0.0,0.0,0.0,0.0,0.0,0.0,0.0,0.0,0.0,0.0,0.0,0.0,0.0,0.0,0.0,0.0,0.0,0.0
39034000000,11369,39031000000,odom,base_footprint,3.090757332704225e-06,2.2849924526707115e-05,-0.0010073991488352245,-1.7748413782618409e-06,0.0015896502891290182,7.116810391860191e-05,0.9999987339711534,1e-05,0.0,0.0,0.0,0.0,0.0,0.0,1e-05,0.0,0.0,0.0,0.0,0.0,0.0,1000000000000.0,0.0,0.0,0.0,0.0,0.0,0.0,1000000000000.0,0.0,0.0,0.0,0.0,0.0,0.0,1000000000000.0,0.0,0.0,0.0,0.0,0.0,0.0,0.001,6.422225558008494e-07,1.186930563342807e-06,0.0,0.0,0.0,7.695669261983523e-06,0.0,0.0,0.0,0.0,0.0,0.0,0.0,0.0,0.0,0.0,0.0,0.0,0.0,0.0,0.0,0.0,0.0,0.0,0.0,0.0,0.0,0.0,0.0,0.0,0.0,0.0,0.0,0.0,0.0,0.0,0.0,0.0,0.0,0.0,0.0,0.0
39068000000,11370,39065000000,odom,base_footprint,3.097712723503128e-06,2.286908716909991e-05,-0.0010073991488428573,-1.7749370060623708e-06,0.0015896502890473641,7.122827952489655e-05,0.9999987339668688,1e-05,0.0,0.0,0.0,0.0,0.0,0.0,1e-05,0.0,0.0,0.0,0.0,0.0,0.0,1000000000000.0,0.0,0.0,0.0,0.0,0.0,0.0,1000000000000.0,0.0,0.0,0.0,0.0,0.0,0.0,1000000000000.0,0.0,0.0,0.0,0.0,0.0,0.0,0.001,6.422259931776175e-07,1.186940722990148e-06,0.0,0.0,0.0,7.695732381612193e-06,0.0,0.0,0.0,0.0,0.0,0.0,0.0,0.0,0.0,0.0,0.0,0.0,0.0,0.0,0.0,0.0,0.0,0.0,0.0,0.0,0.0,0.0,0.0,0.0,0.0,0.0,0.0,0.0,0.0,0.0,0.0,0.0,0.0,0.0,0.0,0.0
39100000000,11371,39097000000,odom,base_footprint,3.1046681265864753e-06,2.2888249852748786e-05,-0.001007399148850497,-1.7750326340554944e-06,0.0015896502889657267,7.128845525987856e-05,0.9999987339625808,1e-05,0.0,0.0,0.0,0.0,0.0,0.0,1e-05,0.0,0.0,0.0,0.0,0.0,0.0,1000000000000.0,0.0,0.0,0.0,0.0,0.0,0.0,1000000000000.0,0.0,0.0,0.0,0.0,0.0,0.0,1000000000000.0,0.0,0.0,0.0,0.0,0.0,0.0,0.001,6.4222943092975e-07,1.1869508838769131e-06,0.0,0.0,0.0,7.695795508831546e-06,0.0,0.0,0.0,0.0,0.0,0.0,0.0,0.0,0.0,0.0,0.0,0.0,0.0,0.0,0.0,0.0,0.0,0.0,0.0,0.0,0.0,0.0,0.0,0.0,0.0,0.0,0.0,0.0,0.0,0.0,0.0,0.0,0.0,0.0,0.0,0.0
39134000000,11372,39134000000,odom,base_footprint,3.1118343123337153e-06,2.290799326698102e-05,-0.0010073991488583761,-1.7751311600822756e-06,0.0015896502888816187,7.135045463673066e-05,0.999998733958159,1e-05,0.0,0.0,0.0,0.0,0.0,0.0,1e-05,0.0,0.0,0.0,0.0,0.0,0.0,1000000000000.0,0.0,0.0,0.0,0.0,0.0,0.0,1000000000000.0,0.0,0.0,0.0,0.0,0.0,0.0,1000000000000.0,0.0,0.0,0.0,0.0,0.0,0.0,0.001,6.422329714976994e-07,1.186961348546599e-06,0.0,0.0,0.0,7.69586052355034e-06,0.0,0.0,0.0,0.0,0.0,0.0,0.0,0.0,0.0,0.0,0.0,0.0,0.0,0.0,0.0,0.0,0.0,0.0,0.0,0.0,0.0,0.0,0.0,0.0,0.0,0.0,0.0,0.0,0.0,0.0,0.0,0.0,0.0,0.0,0.0,0.0
39167000000,11373,39165000000,odom,base_footprint,3.11878974040055e-06,2.292715603449589e-05,-0.0010073991488660193,-1.7752267884811502e-06,0.0015896502887999737,7.141063063330673e-05,0.9999987339538634,1e-05,0.0,0.0,0.0,0.0,0.0,0.0,1e-05,0.0,0.0,0.0,0.0,0.0,0.0,1000000000000.0,0.0,0.0,0.0,0.0,0.0,0.0,1000000000000.0,0.0,0.0,0.0,0.0,0.0,0.0,1000000000000.0,0.0,0.0,0.0,0.0,0.0,0.0,0.001,6.422364096722553e-07,1.186971510635972e-06,0.0,0.0,0.0,7.695923658129787e-06,0.0,0.0,0.0,0.0,0.0,0.0,0.0,0.0,0.0,0.0,0.0,0.0,0.0,0.0,0.0,0.0,0.0,0.0,0.0,0.0,0.0,0.0,0.0,0.0,0.0,0.0,0.0,0.0,0.0,0.0,0.0,0.0,0.0,0.0,0.0,0.0
39200000000,11374,39199000000,odom,base_footprint,3.1257451807735134e-06,2.2946318843308825e-05,-0.001007399148873666,-1.7753224170935131e-06,0.001589650288718341,7.14708067586998e-05,0.9999987339495644,1e-05,0.0,0.0,0.0,0.0,0.0,0.0,1e-05,0.0,0.0,0.0,0.0,0.0,0.0,1000000000000.0,0.0,0.0,0.0,0.0,0.0,0.0,1000000000000.0,0.0,0.0,0.0,0.0,0.0,0.0,1000000000000.0,0.0,0.0,0.0,0.0,0.0,0.0,0.001,6.422398464039557e-07,1.1869816684031634e-06,0.0,0.0,0.0,7.695986766309107e-06,0.0,0.0,0.0,0.0,0.0,0.0,0.0,0.0,0.0,0.0,0.0,0.0,0.0,0.0,0.0,0.0,0.0,0.0,0.0,0.0,0.0,0.0,0.0,0.0,0.0,0.0,0.0,0.0,0.0,0.0,0.0,0.0,0.0,0.0,0.0,0.0
39234000000,11375,39233000000,odom,base_footprint,3.1329114049327353e-06,2.2966062386500588e-05,-0.0010073991488815381,-1.7754209437557626e-06,0.0015896502886341968,7.15328065378017e-05,0.9999987339451313,1e-05,0.0,0.0,0.0,0.0,0.0,0.0,1e-05,0.0,0.0,0.0,0.0,0.0,0.0,1000000000000.0,0.0,0.0,0.0,0.0,0.0,0.0,1000000000000.0,0.0,0.0,0.0,0.0,0.0,0.0,1000000000000.0,0.0,0.0,0.0,0.0,0.0,0.0,0.001,6.422433882946256e-07,1.1869921371341543e-06,0.0,0.0,0.0,7.696051805960814e-06,0.0,0.0,0.0,0.0,0.0,0.0,0.0,0.0,0.0,0.0,0.0,0.0,0.0,0.0,0.0,0.0,0.0,0.0,0.0,0.0,0.0,0.0,0.0,0.0,0.0,0.0,0.0,0.0,0.0,0.0,0.0,0.0,0.0,0.0,0.0,0.0
39267000000,11376,39267000000,odom,base_footprint,3.1398668702813798e-06,2.2985225279176462e-05,-0.0010073991488891744,-1.7755165727871924e-06,0.0015896502885525254,7.159298292477963e-05,0.9999987339408247,1e-05,0.0,0.0,0.0,0.0,0.0,0.0,1e-05,0.0,0.0,0.0,0.0,0.0,0.0,1000000000000.0,0.0,0.0,0.0,0.0,0.0,0.0,1000000000000.0,0.0,0.0,0.0,0.0,0.0,0.0,1000000000000.0,0.0,0.0,0.0,0.0,0.0,0.0,0.001,6.422468246137214e-07,1.1870022935874014e-06,0.0,0.0,0.0,7.696114905974254e-06,0.0,0.0,0.0,0.0,0.0,0.0,0.0,0.0,0.0,0.0,0.0,0.0,0.0,0.0,0.0,0.0,0.0,0.0,0.0,0.0,0.0,0.0,0.0,0.0,0.0,0.0,0.0,0.0,0.0,0.0,0.0,0.0,0.0,0.0,0.0,0.0
39303000000,11377,39297000000,odom,base_footprint,3.1468223479309484e-06,2.3004388213139056e-05,-0.0010073991488968245,-1.7756122020136059e-06,0.0015896502884708724,7.16531594405394e-05,0.9999987339365147,1e-05,0.0,0.0,0.0,0.0,0.0,0.0,1e-05,0.0,0.0,0.0,0.0,0.0,0.0,1000000000000.0,0.0,0.0,0.0,0.0,0.0,0.0,1000000000000.0,0.0,0.0,0.0,0.0,0.0,0.0,1000000000000.0,0.0,0.0,0.0,0.0,0.0,0.0,0.001,6.422502607006142e-07,1.187012449313336e-06,0.0,0.0,0.0,7.696178001546773e-06,0.0,0.0,0.0,0.0,0.0,0.0,0.0,0.0,0.0,0.0,0.0,0.0,0.0,0.0,0.0,0.0,0.0,0.0,0.0,0.0,0.0,0.0,0.0,0.0,0.0,0.0,0.0,0.0,0.0,0.0,0.0,0.0,0.0,0.0,0.0,0.0
39334000000,11378,39334000000,odom,base_footprint,3.153988610489142e-06,2.3024131885246947e-05,-0.0010073991489046967,-1.7757107293054944e-06,0.0015896502883867175,7.17151596217572e-05,0.9999987339320703,1e-05,0.0,0.0,0.0,0.0,0.0,0.0,1e-05,0.0,0.0,0.0,0.0,0.0,0.0,1000000000000.0,0.0,0.0,0.0,0.0,0.0,0.0,1000000000000.0,0.0,0.0,0.0,0.0,0.0,0.0,1000000000000.0,0.0,0.0,0.0,0.0,0.0,0.0,0.001,6.422538031930471e-07,1.1870229198272798e-06,0.0,0.0,0.0,7.696243052289958e-06,0.0,0.0,0.0,0.0,0.0,0.0,0.0,0.0,0.0,0.0,0.0,0.0,0.0,0.0,0.0,0.0,0.0,0.0,0.0,0.0,0.0,0.0,0.0,0.0,0.0,0.0,0.0,0.0,0.0,0.0,0.0,0.0,0.0,0.0,0.0,0.0
39366000000,11379,39367000000,odom,base_footprint,3.1609441131065855e-06,2.3043294903039474e-05,-0.0010073991489123468,-1.7758063589291623e-06,0.0015896502883050725,7.177533639899987e-05,0.9999987339277528,1e-05,0.0,0.0,0.0,0.0,0.0,0.0,1e-05,0.0,0.0,0.0,0.0,0.0,0.0,1000000000000.0,0.0,0.0,0.0,0.0,0.0,0.0,1000000000000.0,0.0,0.0,0.0,0.0,0.0,0.0,1000000000000.0,0.0,0.0,0.0,0.0,0.0,0.0,0.001,6.422572387375049e-07,1.1870330740401012e-06,0.0,0.0,0.0,7.696306138317301e-06,0.0,0.0,0.0,0.0,0.0,0.0,0.0,0.0,0.0,0.0,0.0,0.0,0.0,0.0,0.0,0.0,0.0,0.0,0.0,0.0,0.0,0.0,0.0,0.0,0.0,0.0,0.0,0.0,0.0,0.0,0.0,0.0,0.0,0.0,0.0,0.0
39397000000,11380,39397000000,odom,base_footprint,3.1678996280206165e-06,2.3062457962098545e-05,-0.0010073991489199935,-1.775901988795213e-06,0.0015896502882233713,7.183551330496234e-05,0.9999987339234319,1e-05,0.0,0.0,0.0,0.0,0.0,0.0,1e-05,0.0,0.0,0.0,0.0,0.0,0.0,1000000000000.0,0.0,0.0,0.0,0.0,0.0,0.0,1000000000000.0,0.0,0.0,0.0,0.0,0.0,0.0,1000000000000.0,0.0,0.0,0.0,0.0,0.0,0.0,0.001,6.422606774394577e-07,1.1870432377398065e-06,0.0,0.0,0.0,7.696369282984614e-06,0.0,0.0,0.0,0.0,0.0,0.0,0.0,0.0,0.0,0.0,0.0,0.0,0.0,0.0,0.0,0.0,0.0,0.0,0.0,0.0,0.0,0.0,0.0,0.0,0.0,0.0,0.0,0.0,0.0,0.0,0.0,0.0,0.0,0.0,0.0,0.0
39435000000,11381,39433000000,odom,base_footprint,3.175065928983853e-06,2.3082201763140155e-05,-0.0010073991489278657,-1.7760005167204496e-06,0.001589650288139217,7.189751388835036e-05,0.9999987339189759,1e-05,0.0,0.0,0.0,0.0,0.0,0.0,1e-05,0.0,0.0,0.0,0.0,0.0,0.0,1000000000000.0,0.0,0.0,0.0,0.0,0.0,0.0,1000000000000.0,0.0,0.0,0.0,0.0,0.0,0.0,1000000000000.0,0.0,0.0,0.0,0.0,0.0,0.0,0.001,6.422642177971345e-07,1.1870537017423373e-06,0.0,0.0,0.0,7.696434293803975e-06,0.0,0.0,0.0,0.0,0.0,0.0,0.0,0.0,0.0,0.0,0.0,0.0,0.0,0.0,0.0,0.0,0.0,0.0,0.0,0.0,0.0,0.0,0.0,0.0,0.0,0.0,0.0,0.0,0.0,0.0,0.0,0.0,0.0,0.0,0.0,0.0
39461000000,11382,39460000000,odom,base_footprint,3.1820214688891776e-06,2.310136490610131e-05,-0.0010073991489355089,-1.7760961469785818e-06,0.001589650288057514,7.195769105601828e-05,0.9999987339146474,1e-05,0.0,0.0,0.0,0.0,0.0,0.0,1e-05,0.0,0.0,0.0,0.0,0.0,0.0,1000000000000.0,0.0,0.0,0.0,0.0,0.0,0.0,1000000000000.0,0.0,0.0,0.0,0.0,0.0,0.0,1000000000000.0,0.0,0.0,0.0,0.0,0.0,0.0,0.001,6.422676563771045e-07,1.1870638649686356e-06,0.0,0.0,0.0,7.696497435507941e-06,0.0,0.0,0.0,0.0,0.0,0.0,0.0,0.0,0.0,0.0,0.0,0.0,0.0,0.0,0.0,0.0,0.0,0.0,0.0,0.0,0.0,0.0,0.0,0.0,0.0,0.0,0.0,0.0,0.0,0.0,0.0,0.0,0.0,0.0,0.0,0.0
39504000000,11383,39497000000,odom,base_footprint,3.1889770210945592e-06,2.3120528090362667e-05,-0.0010073991489431625,-1.7761917774506734e-06,0.0015896502879758304,7.201786835250985e-05,0.9999987339103155,1e-05,0.0,0.0,0.0,0.0,0.0,0.0,1e-05,0.0,0.0,0.0,0.0,0.0,0.0,1000000000000.0,0.0,0.0,0.0,0.0,0.0,0.0,1000000000000.0,0.0,0.0,0.0,0.0,0.0,0.0,1000000000000.0,0.0,0.0,0.0,0.0,0.0,0.0,0.001,6.422710932951582e-07,1.187074023376179e-06,0.0,0.0,0.0,7.696560547501142e-06,0.0,0.0,0.0,0.0,0.0,0.0,0.0,0.0,0.0,0.0,0.0,0.0,0.0,0.0,0.0,0.0,0.0,0.0,0.0,0.0,0.0,0.0,0.0,0.0,0.0,0.0,0.0,0.0,0.0,0.0,0.0,0.0,0.0,0.0,0.0,0.0
39537000000,11384,39532000000,odom,base_footprint,3.1961433604619713e-06,2.3140272020338612e-05,-0.0010073991489510312,-1.7762903060066408e-06,0.0015896502878916467,7.207986933806995e-05,0.9999987339058484,1e-05,0.0,0.0,0.0,0.0,0.0,0.0,1e-05,0.0,0.0,0.0,0.0,0.0,0.0,1000000000000.0,0.0,0.0,0.0,0.0,0.0,0.0,1000000000000.0,0.0,0.0,0.0,0.0,0.0,0.0,1000000000000.0,0.0,0.0,0.0,0.0,0.0,0.0,0.001,6.42274633034982e-07,1.1870844855141073e-06,0.0,0.0,0.0,7.69662554664278e-06,0.0,0.0,0.0,0.0,0.0,0.0,0.0,0.0,0.0,0.0,0.0,0.0,0.0,0.0,0.0,0.0,0.0,0.0,0.0,0.0,0.0,0.0,0.0,0.0,0.0,0.0,0.0,0.0,0.0,0.0,0.0,0.0,0.0,0.0,0.0,0.0
39543000000,11385,39551000000,odom,base_footprint,3.2030989376317584e-06,2.3159435288409375e-05,-0.0010073991489586744,-1.7763859368957618e-06,0.001589650287809931,7.214004689598106e-05,0.9999987339015087,1e-05,0.0,0.0,0.0,0.0,0.0,0.0,1e-05,0.0,0.0,0.0,0.0,0.0,0.0,1000000000000.0,0.0,0.0,0.0,0.0,0.0,0.0,1000000000000.0,0.0,0.0,0.0,0.0,0.0,0.0,1000000000000.0,0.0,0.0,0.0,0.0,0.0,0.0,0.001,6.422780705709343e-07,1.1870946456812523e-06,0.0,0.0,0.0,7.696688669598589e-06,0.0,0.0,0.0,0.0,0.0,0.0,0.0,0.0,0.0,0.0,0.0,0.0,0.0,0.0,0.0,0.0,0.0,0.0,0.0,0.0,0.0,0.0,0.0,0.0,0.0,0.0,0.0,0.0,0.0,0.0,0.0,0.0,0.0,0.0,0.0,0.0
39606000000,11386,39598000000,odom,base_footprint,3.210054527100735e-06,2.3178598597779587e-05,-0.001007399148966328,-1.7764815679840725e-06,0.0015896502877282197,7.220022458271337e-05,0.9999987338971658,1e-05,0.0,0.0,0.0,0.0,0.0,0.0,1e-05,0.0,0.0,0.0,0.0,0.0,0.0,1000000000000.0,0.0,0.0,0.0,0.0,0.0,0.0,1000000000000.0,0.0,0.0,0.0,0.0,0.0,0.0,1000000000000.0,0.0,0.0,0.0,0.0,0.0,0.0,0.001,6.422815082149949e-07,1.187104806125944e-06,0.0,0.0,0.0,7.696751794276649e-06,0.0,0.0,0.0,0.0,0.0,0.0,0.0,0.0,0.0,0.0,0.0,0.0,0.0,0.0,0.0,0.0,0.0,0.0,0.0,0.0,0.0,0.0,0.0,0.0,0.0,0.0,0.0,0.0,0.0,0.0,0.0,0.0,0.0,0.0,0.0,0.0
39632000000,11387,39634000000,odom,base_footprint,3.2172209048940067e-06,2.3198342656735092e-05,-0.001007399148974207,-1.7765800971907097e-06,0.001589650287644041,7.226222597058523e-05,0.9999987338926873,1e-05,0.0,0.0,0.0,0.0,0.0,0.0,1e-05,0.0,0.0,0.0,0.0,0.0,0.0,1000000000000.0,0.0,0.0,0.0,0.0,0.0,0.0,1000000000000.0,0.0,0.0,0.0,0.0,0.0,0.0,1000000000000.0,0.0,0.0,0.0,0.0,0.0,0.0,0.001,6.422850494792202e-07,1.1871152729159115e-06,0.0,0.0,0.0,7.696816822077647e-06,0.0,0.0,0.0,0.0,0.0,0.0,0.0,0.0,0.0,0.0,0.0,0.0,0.0,0.0,0.0,0.0,0.0,0.0,0.0,0.0,0.0,0.0,0.0,0.0,0.0,0.0,0.0,0.0,0.0,0.0,0.0,0.0,0.0,0.0,0.0,0.0
39667000000,11388,39666000000,odom,base_footprint,3.2241765193508076e-06,2.321750604998699e-05,-0.0010073991489818537,-1.776675728672096e-06,0.0015896502875623066,7.23224039189601e-05,0.9999987338883369,1e-05,0.0,0.0,0.0,0.0,0.0,0.0,1e-05,0.0,0.0,0.0,0.0,0.0,0.0,1000000000000.0,0.0,0.0,0.0,0.0,0.0,0.0,1000000000000.0,0.0,0.0,0.0,0.0,0.0,0.0,1000000000000.0,0.0,0.0,0.0,0.0,0.0,0.0,0.001,6.422884866998553e-07,1.1871254320857536e-06,0.0,0.0,0.0,7.696879938737894e-06,0.0,0.0,0.0,0.0,0.0,0.0,0.0,0.0,0.0,0.0,0.0,0.0,0.0,0.0,0.0,0.0,0.0,0.0,0.0,0.0,0.0,0.0,0.0,0.0,0.0,0.0,0.0,0.0,0.0,0.0,0.0,0.0,0.0,0.0,0.0,0.0
39700000000,11389,39700000000,odom,base_footprint,3.231132146092053e-06,2.3236669484491464e-05,-0.0010073991489895039,-1.7767713603796172e-06,0.0015896502874805905,7.238258199601162e-05,0.9999987338839826,1e-05,0.0,0.0,0.0,0.0,0.0,0.0,1e-05,0.0,0.0,0.0,0.0,0.0,0.0,1000000000000.0,0.0,0.0,0.0,0.0,0.0,0.0,1000000000000.0,0.0,0.0,0.0,0.0,0.0,0.0,1000000000000.0,0.0,0.0,0.0,0.0,0.0,0.0,0.001,6.42291923450828e-07,1.1871355899491767e-06,0.0,0.0,0.0,7.696943047542995e-06,0.0,0.0,0.0,0.0,0.0,0.0,0.0,0.0,0.0,0.0,0.0,0.0,0.0,0.0,0.0,0.0,0.0,0.0,0.0,0.0,0.0,0.0,0.0,0.0,0.0,0.0,0.0,0.0,0.0,0.0,0.0,0.0,0.0,0.0,0.0,0.0
39734000000,11390,39733000000,odom,base_footprint,3.238298562279092e-06,2.3256413672352245e-05,-0.00100739914899739,-1.7768698902341889e-06,0.001589650287396398,7.244458378596606e-05,0.9999987338794929,1e-05,0.0,0.0,0.0,0.0,0.0,0.0,1e-05,0.0,0.0,0.0,0.0,0.0,0.0,1000000000000.0,0.0,0.0,0.0,0.0,0.0,0.0,1000000000000.0,0.0,0.0,0.0,0.0,0.0,0.0,1000000000000.0,0.0,0.0,0.0,0.0,0.0,0.0,0.001,6.422954651892628e-07,1.1871460581043935e-06,0.0,0.0,0.0,7.697008083873229e-06,0.0,0.0,0.0,0.0,0.0,0.0,0.0,0.0,0.0,0.0,0.0,0.0,0.0,0.0,0.0,0.0,0.0,0.0,0.0,0.0,0.0,0.0,0.0,0.0,0.0,0.0,0.0,0.0,0.0,0.0,0.0,0.0,0.0,0.0,0.0,0.0
39767000000,11391,39767000000,odom,base_footprint,3.245254214007294e-06,2.3275577190735873e-05,-0.0010073991490050262,-1.7769655223274409e-06,0.0015896502873146356,7.250476212465228e-05,0.9999987338751315,1e-05,0.0,0.0,0.0,0.0,0.0,0.0,1e-05,0.0,0.0,0.0,0.0,0.0,0.0,1000000000000.0,0.0,0.0,0.0,0.0,0.0,0.0,1000000000000.0,0.0,0.0,0.0,0.0,0.0,0.0,1000000000000.0,0.0,0.0,0.0,0.0,0.0,0.0,0.001,6.422989031917594e-07,1.1871562196843575e-06,0.0,0.0,0.0,7.697071215430211e-06,0.0,0.0,0.0,0.0,0.0,0.0,0.0,0.0,0.0,0.0,0.0,0.0,0.0,0.0,0.0,0.0,0.0,0.0,0.0,0.0,0.0,0.0,0.0,0.0,0.0,0.0,0.0,0.0,0.0,0.0,0.0,0.0,0.0,0.0,0.0,0.0
39800000000,11392,39800000000,odom,base_footprint,3.2522098780390224e-06,2.3294740750434988e-05,-0.0010073991490126694,-1.7770611546658524e-06,0.0015896502872328865,7.256494059220942e-05,0.9999987338707664,1e-05,0.0,0.0,0.0,0.0,0.0,0.0,1e-05,0.0,0.0,0.0,0.0,0.0,0.0,1000000000000.0,0.0,0.0,0.0,0.0,0.0,0.0,1000000000000.0,0.0,0.0,0.0,0.0,0.0,0.0,1000000000000.0,0.0,0.0,0.0,0.0,0.0,0.0,0.001,6.423023399121578e-07,1.1871663773650995e-06,0.0,0.0,0.0,7.697134323049924e-06,0.0,0.0,0.0,0.0,0.0,0.0,0.0,0.0,0.0,0.0,0.0,0.0,0.0,0.0,0.0,0.0,0.0,0.0,0.0,0.0,0.0,0.0,0.0,0.0,0.0,0.0,0.0,0.0,0.0,0.0,0.0,0.0,0.0,0.0,0.0,0.0
39825000000,11393,39825000000,odom,base_footprint,3.2593763326363087e-06,2.3314485067254383e-05,-0.0010073991490205589,-1.7771596851343027e-06,0.0015896502871486746,7.26269427844108e-05,0.9999987338662654,1e-05,0.0,0.0,0.0,0.0,0.0,0.0,1e-05,0.0,0.0,0.0,0.0,0.0,0.0,1000000000000.0,0.0,0.0,0.0,0.0,0.0,0.0,1000000000000.0,0.0,0.0,0.0,0.0,0.0,0.0,1000000000000.0,0.0,0.0,0.0,0.0,0.0,0.0,0.001,6.423058817495377e-07,1.1871768457933853e-06,0.0,0.0,0.0,7.697199361211714e-06,0.0,0.0,0.0,0.0,0.0,0.0,0.0,0.0,0.0,0.0,0.0,0.0,0.0,0.0,0.0,0.0,0.0,0.0,0.0,0.0,0.0,0.0,0.0,0.0,0.0,0.0,0.0,0.0,0.0,0.0,0.0,0.0,0.0,0.0,0.0,0.0
39866000000,11394,39866000000,odom,base_footprint,3.266332021648055e-06,2.3333648710808268e-05,-0.001007399149028209,-1.7772553178855017e-06,0.0015896502870669257,7.268712151352752e-05,0.999998733861893,1e-05,0.0,0.0,0.0,0.0,0.0,0.0,1e-05,0.0,0.0,0.0,0.0,0.0,0.0,1000000000000.0,0.0,0.0,0.0,0.0,0.0,0.0,1000000000000.0,0.0,0.0,0.0,0.0,0.0,0.0,1000000000000.0,0.0,0.0,0.0,0.0,0.0,0.0,0.001,6.423093178122673e-07,1.1871870015622277e-06,0.0,0.0,0.0,7.697262457062205e-06,0.0,0.0,0.0,0.0,0.0,0.0,0.0,0.0,0.0,0.0,0.0,0.0,0.0,0.0,0.0,0.0,0.0,0.0,0.0,0.0,0.0,0.0,0.0,0.0,0.0,0.0,0.0,0.0,0.0,0.0,0.0,0.0,0.0,0.0,0.0,0.0
39896000000,11395,39896000000,odom,base_footprint,3.2732877229607257e-06,2.3352812395652502e-05,-0.0010073991490358453,-1.7773509508237453e-06,0.0015896502869851383,7.274730037143729e-05,0.9999987338575167,1e-05,0.0,0.0,0.0,0.0,0.0,0.0,1e-05,0.0,0.0,0.0,0.0,0.0,0.0,1000000000000.0,0.0,0.0,0.0,0.0,0.0,0.0,1000000000000.0,0.0,0.0,0.0,0.0,0.0,0.0,1000000000000.0,0.0,0.0,0.0,0.0,0.0,0.0,0.001,6.423127556733861e-07,1.1871971627090512e-06,0.0,0.0,0.0,7.697325585879647e-06,0.0,0.0,0.0,0.0,0.0,0.0,0.0,0.0,0.0,0.0,0.0,0.0,0.0,0.0,0.0,0.0,0.0,0.0,0.0,0.0,0.0,0.0,0.0,0.0,0.0,0.0,0.0,0.0,0.0,0.0,0.0,0.0,0.0,0.0,0.0,0.0
39935000000,11396,39931000000,odom,base_footprint,3.2804542159665245e-06,2.337255684142215e-05,-0.0010073991490437383,-1.7774494819315134e-06,0.0015896502869009476,7.280930296585992e-05,0.9999987338530043,1e-05,0.0,0.0,0.0,0.0,0.0,0.0,1e-05,0.0,0.0,0.0,0.0,0.0,0.0,1000000000000.0,0.0,0.0,0.0,0.0,0.0,0.0,1000000000000.0,0.0,0.0,0.0,0.0,0.0,0.0,1000000000000.0,0.0,0.0,0.0,0.0,0.0,0.0,0.001,6.423162970796738e-07,1.1872076299317884e-06,0.0,0.0,0.0,7.697390616507736e-06,0.0,0.0,0.0,0.0,0.0,0.0,0.0,0.0,0.0,0.0,0.0,0.0,0.0,0.0,0.0,0.0,0.0,0.0,0.0,0.0,0.0,0.0,0.0,0.0,0.0,0.0,0.0,0.0,0.0,0.0,0.0,0.0,0.0,0.0,0.0,0.0
39961000000,11397,39961000000,odom,base_footprint,3.287409942249672e-06,2.339172061009852e-05,-0.001007399149051385,-1.7775451152895578e-06,0.0015896502868191472,7.28694820852594e-05,0.9999987338486207,1e-05,0.0,0.0,0.0,0.0,0.0,0.0,1e-05,0.0,0.0,0.0,0.0,0.0,0.0,1000000000000.0,0.0,0.0,0.0,0.0,0.0,0.0,1000000000000.0,0.0,0.0,0.0,0.0,0.0,0.0,1000000000000.0,0.0,0.0,0.0,0.0,0.0,0.0,0.001,6.423197335774684e-07,1.1872177869641892e-06,0.0,0.0,0.0,7.69745372027016e-06,0.0,0.0,0.0,0.0,0.0,0.0,0.0,0.0,0.0,0.0,0.0,0.0,0.0,0.0,0.0,0.0,0.0,0.0,0.0,0.0,0.0,0.0,0.0,0.0,0.0,0.0,0.0,0.0,0.0,0.0,0.0,0.0,0.0,0.0,0.0,0.0
40000000000,11398,40000000000,odom,base_footprint,3.2943656808346114e-06,2.341088442008837e-05,-0.001007399149059035,-1.7776407488303086e-06,0.0015896502867373847,7.292966133352338e-05,0.9999987338442337,1e-05,0.0,0.0,0.0,0.0,0.0,0.0,1e-05,0.0,0.0,0.0,0.0,0.0,0.0,1000000000000.0,0.0,0.0,0.0,0.0,0.0,0.0,1000000000000.0,0.0,0.0,0.0,0.0,0.0,0.0,1000000000000.0,0.0,0.0,0.0,0.0,0.0,0.0,0.001,6.423231720842591e-07,1.1872279499971339e-06,0.0,0.0,0.0,7.697516860736957e-06,0.0,0.0,0.0,0.0,0.0,0.0,0.0,0.0,0.0,0.0,0.0,0.0,0.0,0.0,0.0,0.0,0.0,0.0,0.0,0.0,0.0,0.0,0.0,0.0,0.0,0.0,0.0,0.0,0.0,0.0,0.0,0.0,0.0,0.0,0.0,0.0
40034000000,11399,40034000000,odom,base_footprint,3.301532212240249e-06,2.3430628994771518e-05,-0.0010073991490669176,-1.777739280576929e-06,0.001589650286653128,7.299166433005392e-05,0.9999987338397098,1e-05,0.0,0.0,0.0,0.0,0.0,0.0,1e-05,0.0,0.0,0.0,0.0,0.0,0.0,1000000000000.0,0.0,0.0,0.0,0.0,0.0,0.0,1000000000000.0,0.0,0.0,0.0,0.0,0.0,0.0,1000000000000.0,0.0,0.0,0.0,0.0,0.0,0.0,0.001,6.423267130209341e-07,1.187238415679226e-06,0.0,0.0,0.0,7.697581881914991e-06,0.0,0.0,0.0,0.0,0.0,0.0,0.0,0.0,0.0,0.0,0.0,0.0,0.0,0.0,0.0,0.0,0.0,0.0,0.0,0.0,0.0,0.0,0.0,0.0,0.0,0.0,0.0,0.0,0.0,0.0,0.0,0.0,0.0,0.0,0.0,0.0
40071000000,11400,40065000000,odom,base_footprint,3.3084879758052063e-06,2.3449792888607844e-05,-0.0010073991490745678,-1.7778349145677026e-06,0.001589650286571341,7.305184383985204e-05,0.9999987338353155,1e-05,0.0,0.0,0.0,0.0,0.0,0.0,1e-05,0.0,0.0,0.0,0.0,0.0,0.0,1000000000000.0,0.0,0.0,0.0,0.0,0.0,0.0,1000000000000.0,0.0,0.0,0.0,0.0,0.0,0.0,1000000000000.0,0.0,0.0,0.0,0.0,0.0,0.0,0.001,6.423301506660484e-07,1.1872485761335185e-06,0.0,0.0,0.0,7.697645006720172e-06,0.0,0.0,0.0,0.0,0.0,0.0,0.0,0.0,0.0,0.0,0.0,0.0,0.0,0.0,0.0,0.0,0.0,0.0,0.0,0.0,0.0,0.0,0.0,0.0,0.0,0.0,0.0,0.0,0.0,0.0,0.0,0.0,0.0,0.0,0.0,0.0
40099000000,11401,40100000000,odom,base_footprint,3.3154437516702204e-06,2.3468956823744503e-05,-0.001007399149082211,-1.7779305487043937e-06,0.0015896502864895532,7.311202347847387e-05,0.9999987338309174,1e-05,0.0,0.0,0.0,0.0,0.0,0.0,1e-05,0.0,0.0,0.0,0.0,0.0,0.0,1000000000000.0,0.0,0.0,0.0,0.0,0.0,0.0,1000000000000.0,0.0,0.0,0.0,0.0,0.0,0.0,1000000000000.0,0.0,0.0,0.0,0.0,0.0,0.0,0.001,6.423335876795455e-07,1.1872587348073152e-06,0.0,0.0,0.0,7.697708120376747e-06,0.0,0.0,0.0,0.0,0.0,0.0,0.0,0.0,0.0,0.0,0.0,0.0,0.0,0.0,0.0,0.0,0.0,0.0,0.0,0.0,0.0,0.0,0.0,0.0,0.0,0.0,0.0,0.0,0.0,0.0,0.0,0.0,0.0,0.0,0.0,0.0
40134000000,11402,40134000000,odom,base_footprint,3.3226103214895747e-06,2.348870152738304e-05,-0.001007399149090104,-1.7780290811079242e-06,0.0015896502864052792,7.317402687724167e-05,0.9999987338263823,1e-05,0.0,0.0,0.0,0.0,0.0,0.0,1e-05,0.0,0.0,0.0,0.0,0.0,0.0,1000000000000.0,0.0,0.0,0.0,0.0,0.0,0.0,1000000000000.0,0.0,0.0,0.0,0.0,0.0,0.0,1000000000000.0,0.0,0.0,0.0,0.0,0.0,0.0,0.001,6.423371287361045e-07,1.187269200917028e-06,0.0,0.0,0.0,7.697773144130202e-06,0.0,0.0,0.0,0.0,0.0,0.0,0.0,0.0,0.0,0.0,0.0,0.0,0.0,0.0,0.0,0.0,0.0,0.0,0.0,0.0,0.0,0.0,0.0,0.0,0.0,0.0,0.0,0.0,0.0,0.0,0.0,0.0,0.0,0.0,0.0,0.0
40164000000,11403,40165000000,odom,base_footprint,3.329566122325066e-06,2.35078655463465e-05,-0.0010073991490977506,-1.7781247157040095e-06,0.0015896502863234874,7.323420677733703e-05,0.9999987338219767,1e-05,0.0,0.0,0.0,0.0,0.0,0.0,1e-05,0.0,0.0,0.0,0.0,0.0,0.0,1000000000000.0,0.0,0.0,0.0,0.0,0.0,0.0,1000000000000.0,0.0,0.0,0.0,0.0,0.0,0.0,1000000000000.0,0.0,0.0,0.0,0.0,0.0,0.0,0.001,6.423405662475557e-07,1.1872793610166699e-06,0.0,0.0,0.0,7.697836266752928e-06,0.0,0.0,0.0,0.0,0.0,0.0,0.0,0.0,0.0,0.0,0.0,0.0,0.0,0.0,0.0,0.0,0.0,0.0,0.0,0.0,0.0,0.0,0.0,0.0,0.0,0.0,0.0,0.0,0.0,0.0,0.0,0.0,0.0,0.0,0.0,0.0
40200000000,11404,40195000000,odom,base_footprint,3.336521935465818e-06,2.3527029606637475e-05,-0.0010073991491054007,-1.7782203504964042e-06,0.0015896502862416857,7.329438680634018e-05,0.9999987338175677,1e-05,0.0,0.0,0.0,0.0,0.0,0.0,1e-05,0.0,0.0,0.0,0.0,0.0,0.0,1000000000000.0,0.0,0.0,0.0,0.0,0.0,0.0,1000000000000.0,0.0,0.0,0.0,0.0,0.0,0.0,1000000000000.0,0.0,0.0,0.0,0.0,0.0,0.0,0.001,6.423440040263737e-07,1.1872895218335321e-06,0.0,0.0,0.0,7.697899393956967e-06,0.0,0.0,0.0,0.0,0.0,0.0,0.0,0.0,0.0,0.0,0.0,0.0,0.0,0.0,0.0,0.0,0.0,0.0,0.0,0.0,0.0,0.0,0.0,0.0,0.0,0.0,0.0,0.0,0.0,0.0,0.0,0.0,0.0,0.0,0.0,0.0
40240000000,11405,40231000000,odom,base_footprint,3.3436885436980215e-06,2.3546774439244644e-05,-0.0010073991491132833,-1.778318883526617e-06,0.0015896502861574044,7.335639060738591e-05,0.999998733813021,1e-05,0.0,0.0,0.0,0.0,0.0,0.0,1e-05,0.0,0.0,0.0,0.0,0.0,0.0,1000000000000.0,0.0,0.0,0.0,0.0,0.0,0.0,1000000000000.0,0.0,0.0,0.0,0.0,0.0,0.0,1000000000000.0,0.0,0.0,0.0,0.0,0.0,0.0,0.001,6.423475467235305e-07,1.1872999928943207e-06,0.0,0.0,0.0,7.69796444802741e-06,0.0,0.0,0.0,0.0,0.0,0.0,0.0,0.0,0.0,0.0,0.0,0.0,0.0,0.0,0.0,0.0,0.0,0.0,0.0,0.0,0.0,0.0,0.0,0.0,0.0,0.0,0.0,0.0,0.0,0.0,0.0,0.0,0.0,0.0,0.0,0.0
40267000000,11406,40267000000,odom,base_footprint,3.3506443818231285e-06,2.356593858340204e-05,-0.001007399149120937,-1.7784145187234296e-06,0.0015896502860755874,7.341657089798454e-05,0.9999987338086046,1e-05,0.0,0.0,0.0,0.0,0.0,0.0,1e-05,0.0,0.0,0.0,0.0,0.0,0.0,1000000000000.0,0.0,0.0,0.0,0.0,0.0,0.0,1000000000000.0,0.0,0.0,0.0,0.0,0.0,0.0,1000000000000.0,0.0,0.0,0.0,0.0,0.0,0.0,0.001,6.423509820146978e-07,1.1873101463529595e-06,0.0,0.0,0.0,7.698027529720567e-06,0.0,0.0,0.0,0.0,0.0,0.0,0.0,0.0,0.0,0.0,0.0,0.0,0.0,0.0,0.0,0.0,0.0,0.0,0.0,0.0,0.0,0.0,0.0,0.0,0.0,0.0,0.0,0.0,0.0,0.0,0.0,0.0,0.0,0.0,0.0,0.0
40303000000,11407,40292000000,odom,base_footprint,3.3576002322439555e-06,2.3585102768827745e-05,-0.001007399149128587,-1.7785101541464463e-06,0.0015896502859937642,7.347675131730842e-05,0.9999987338041846,1e-05,0.0,0.0,0.0,0.0,0.0,0.0,1e-05,0.0,0.0,0.0,0.0,0.0,0.0,1000000000000.0,0.0,0.0,0.0,0.0,0.0,0.0,1000000000000.0,0.0,0.0,0.0,0.0,0.0,0.0,1000000000000.0,0.0,0.0,0.0,0.0,0.0,0.0,0.001,6.423544203114175e-07,1.187320308693884e-06,0.0,0.0,0.0,7.69809066616818e-06,0.0,0.0,0.0,0.0,0.0,0.0,0.0,0.0,0.0,0.0,0.0,0.0,0.0,0.0,0.0,0.0,0.0,0.0,0.0,0.0,0.0,0.0,0.0,0.0,0.0,0.0,0.0,0.0,0.0,0.0,0.0,0.0,0.0,0.0,0.0,0.0
40334000000,11408,40333000000,odom,base_footprint,3.3647668788786e-06,2.360484773035904e-05,-0.0010073991491364835,-1.7786086878004894e-06,0.0015896502859094905,7.353875552049479e-05,0.9999987337996266,1e-05,0.0,0.0,0.0,0.0,0.0,0.0,1e-05,0.0,0.0,0.0,0.0,0.0,0.0,1000000000000.0,0.0,0.0,0.0,0.0,0.0,0.0,1000000000000.0,0.0,0.0,0.0,0.0,0.0,0.0,1000000000000.0,0.0,0.0,0.0,0.0,0.0,0.0,0.001,6.423579614494386e-07,1.1873307752381522e-06,0.0,0.0,0.0,7.698155692609084e-06,0.0,0.0,0.0,0.0,0.0,0.0,0.0,0.0,0.0,0.0,0.0,0.0,0.0,0.0,0.0,0.0,0.0,0.0,0.0,0.0,0.0,0.0,0.0,0.0,0.0,0.0,0.0,0.0,0.0,0.0,0.0,0.0,0.0,0.0,0.0,0.0
40367000000,11409,40367000000,odom,base_footprint,3.371722754269904e-06,2.362401199963161e-05,-0.0010073991491441267,-1.7787043236307707e-06,0.0015896502858276454,7.359893620135386e-05,0.9999987337951991,1e-05,0.0,0.0,0.0,0.0,0.0,0.0,1e-05,0.0,0.0,0.0,0.0,0.0,0.0,1000000000000.0,0.0,0.0,0.0,0.0,0.0,0.0,1000000000000.0,0.0,0.0,0.0,0.0,0.0,0.0,1000000000000.0,0.0,0.0,0.0,0.0,0.0,0.0,0.001,6.423613996100416e-07,1.1873409370593152e-06,0.0,0.0,0.0,7.698218825910395e-06,0.0,0.0,0.0,0.0,0.0,0.0,0.0,0.0,0.0,0.0,0.0,0.0,0.0,0.0,0.0,0.0,0.0,0.0,0.0,0.0,0.0,0.0,0.0,0.0,0.0,0.0,0.0,0.0,0.0,0.0,0.0,0.0,0.0,0.0,0.0,0.0
40401000000,11410,40399000000,odom,base_footprint,3.3786786419699386e-06,2.3643176310229698e-05,-0.0010073991491517803,-1.778799959648345e-06,0.001589650285745796,7.365911701111456e-05,0.9999987337907681,1e-05,0.0,0.0,0.0,0.0,0.0,0.0,1e-05,0.0,0.0,0.0,0.0,0.0,0.0,1000000000000.0,0.0,0.0,0.0,0.0,0.0,0.0,1000000000000.0,0.0,0.0,0.0,0.0,0.0,0.0,1000000000000.0,0.0,0.0,0.0,0.0,0.0,0.0,0.001,6.423648360538165e-07,1.187351094006606e-06,0.0,0.0,0.0,7.698281928912646e-06,0.0,0.0,0.0,0.0,0.0,0.0,0.0,0.0,0.0,0.0,0.0,0.0,0.0,0.0,0.0,0.0,0.0,0.0,0.0,0.0,0.0,0.0,0.0,0.0,0.0,0.0,0.0,0.0,0.0,0.0,0.0,0.0,0.0,0.0,0.0,0.0
40432000000,11411,40432000000,odom,base_footprint,3.385845327009626e-06,2.366292140070068e-05,-0.0010073991491596664,-1.7788984939390196e-06,0.0015896502856614918,7.372112161648969e-05,0.999998733786199,1e-05,0.0,0.0,0.0,0.0,0.0,0.0,1e-05,0.0,0.0,0.0,0.0,0.0,0.0,1000000000000.0,0.0,0.0,0.0,0.0,0.0,0.0,1000000000000.0,0.0,0.0,0.0,0.0,0.0,0.0,1000000000000.0,0.0,0.0,0.0,0.0,0.0,0.0,0.001,6.423683784997765e-07,1.1873615642293424e-06,0.0,0.0,0.0,7.698346978158208e-06,0.0,0.0,0.0,0.0,0.0,0.0,0.0,0.0,0.0,0.0,0.0,0.0,0.0,0.0,0.0,0.0,0.0,0.0,0.0,0.0,0.0,0.0,0.0,0.0,0.0,0.0,0.0,0.0,0.0,0.0,0.0,0.0,0.0,0.0,0.0,0.0
40469000000,11412,40463000000,odom,base_footprint,3.3928012396844745e-06,2.3682085795140352e-05,-0.0010073991491673165,-1.7789941304119584e-06,0.0015896502855796408,7.378130268776956e-05,0.9999987337817605,1e-05,0.0,0.0,0.0,0.0,0.0,0.0,1e-05,0.0,0.0,0.0,0.0,0.0,0.0,1000000000000.0,0.0,0.0,0.0,0.0,0.0,0.0,1000000000000.0,0.0,0.0,0.0,0.0,0.0,0.0,1000000000000.0,0.0,0.0,0.0,0.0,0.0,0.0,0.001,6.423718150213426e-07,1.1873717213565849e-06,0.0,0.0,0.0,7.698410082570765e-06,0.0,0.0,0.0,0.0,0.0,0.0,0.0,0.0,0.0,0.0,0.0,0.0,0.0,0.0,0.0,0.0,0.0,0.0,0.0,0.0,0.0,0.0,0.0,0.0,0.0,0.0,0.0,0.0,0.0,0.0,0.0,0.0,0.0,0.0,0.0,0.0
40499000000,11413,40490000000,odom,base_footprint,3.399757164657645e-06,2.3701250230883864e-05,-0.0010073991491749736,-1.7790897670463546e-06,0.0015896502854977868,7.384148388788394e-05,0.9999987337773185,1e-05,0.0,0.0,0.0,0.0,0.0,0.0,1e-05,0.0,0.0,0.0,0.0,0.0,0.0,1000000000000.0,0.0,0.0,0.0,0.0,0.0,0.0,1000000000000.0,0.0,0.0,0.0,0.0,0.0,0.0,1000000000000.0,0.0,0.0,0.0,0.0,0.0,0.0,0.001,6.423752524759136e-07,1.1873818812475459e-06,0.0,0.0,0.0,7.69847320379858e-06,0.0,0.0,0.0,0.0,0.0,0.0,0.0,0.0,0.0,0.0,0.0,0.0,0.0,0.0,0.0,0.0,0.0,0.0,0.0,0.0,0.0,0.0,0.0,0.0,0.0,0.0,0.0,0.0,0.0,0.0,0.0,0.0,0.0,0.0,0.0,0.0
40534000000,11414,40533000000,odom,base_footprint,3.4069238880945693e-06,2.3720995450265217e-05,-0.0010073991491828527,-1.7791883019863884e-06,0.0015896502854134474,7.390348889535733e-05,0.9999987337727378,1e-05,0.0,0.0,0.0,0.0,0.0,0.0,1e-05,0.0,0.0,0.0,0.0,0.0,0.0,1000000000000.0,0.0,0.0,0.0,0.0,0.0,0.0,1000000000000.0,0.0,0.0,0.0,0.0,0.0,0.0,1000000000000.0,0.0,0.0,0.0,0.0,0.0,0.0,0.001,6.423787940783566e-07,1.1873923489491058e-06,0.0,0.0,0.0,7.698538237547678e-06,0.0,0.0,0.0,0.0,0.0,0.0,0.0,0.0,0.0,0.0,0.0,0.0,0.0,0.0,0.0,0.0,0.0,0.0,0.0,0.0,0.0,0.0,0.0,0.0,0.0,0.0,0.0,0.0,0.0,0.0,0.0,0.0,0.0,0.0,0.0,0.0
40567000000,11415,40566000000,odom,base_footprint,3.4138798380425536e-06,2.3740159969836392e-05,-0.0010073991491905167,-1.779283939038433e-06,0.0015896502853315992,7.39636703569478e-05,0.9999987337682884,1e-05,0.0,0.0,0.0,0.0,0.0,0.0,1e-05,0.0,0.0,0.0,0.0,0.0,0.0,1000000000000.0,0.0,0.0,0.0,0.0,0.0,0.0,1000000000000.0,0.0,0.0,0.0,0.0,0.0,0.0,1000000000000.0,0.0,0.0,0.0,0.0,0.0,0.0,0.001,6.423822324741827e-07,1.1874025117599704e-06,0.0,0.0,0.0,7.698601376854107e-06,0.0,0.0,0.0,0.0,0.0,0.0,0.0,0.0,0.0,0.0,0.0,0.0,0.0,0.0,0.0,0.0,0.0,0.0,0.0,0.0,0.0,0.0,0.0,0.0,0.0,0.0,0.0,0.0,0.0,0.0,0.0,0.0,0.0,0.0,0.0,0.0
40600000000,11416,40597000000,odom,base_footprint,3.4208358003001357e-06,2.375932453073704e-05,-0.0010073991491981772,-1.7793795762923846e-06,0.0015896502852497463,7.402385194745207e-05,0.9999987337638353,1e-05,0.0,0.0,0.0,0.0,0.0,0.0,1e-05,0.0,0.0,0.0,0.0,0.0,0.0,1000000000000.0,0.0,0.0,0.0,0.0,0.0,0.0,1000000000000.0,0.0,0.0,0.0,0.0,0.0,0.0,1000000000000.0,0.0,0.0,0.0,0.0,0.0,0.0,0.001,6.423856693457223e-07,1.1874126698874385e-06,0.0,0.0,0.0,7.698664487328959e-06,0.0,0.0,0.0,0.0,0.0,0.0,0.0,0.0,0.0,0.0,0.0,0.0,0.0,0.0,0.0,0.0,0.0,0.0,0.0,0.0,0.0,0.0,0.0,0.0,0.0,0.0,0.0,0.0,0.0,0.0,0.0,0.0,0.0,0.0,0.0,0.0
40631000000,11417,40631000000,odom,base_footprint,3.428002562153379e-06,2.3779069879089383e-05,-0.0010073991492060633,-1.7794781118626903e-06,0.0015896502851653936,7.40858573572108e-05,0.9999987337592433,1e-05,0.0,0.0,0.0,0.0,0.0,0.0,1e-05,0.0,0.0,0.0,0.0,0.0,0.0,1000000000000.0,0.0,0.0,0.0,0.0,0.0,0.0,1000000000000.0,0.0,0.0,0.0,0.0,0.0,0.0,1000000000000.0,0.0,0.0,0.0,0.0,0.0,0.0,0.001,6.423892104475532e-07,1.1874231360709883e-06,0.0,0.0,0.0,7.698729511548885e-06,0.0,0.0,0.0,0.0,0.0,0.0,0.0,0.0,0.0,0.0,0.0,0.0,0.0,0.0,0.0,0.0,0.0,0.0,0.0,0.0,0.0,0.0,0.0,0.0,0.0,0.0,0.0,0.0,0.0,0.0,0.0,0.0,0.0,0.0,0.0,0.0
40667000000,11418,40666000000,odom,base_footprint,3.4349585493875096e-06,2.3798234523847853e-05,-0.0010073991492137203,-1.7795737495483393e-06,0.0015896502850835227,7.414603920928423e-05,0.9999987337547829,1e-05,0.0,0.0,0.0,0.0,0.0,0.0,1e-05,0.0,0.0,0.0,0.0,0.0,0.0,1000000000000.0,0.0,0.0,0.0,0.0,0.0,0.0,1000000000000.0,0.0,0.0,0.0,0.0,0.0,0.0,1000000000000.0,0.0,0.0,0.0,0.0,0.0,0.0,0.001,6.423926484347085e-07,1.1874332976221335e-06,0.0,0.0,0.0,7.69879264324007e-06,0.0,0.0,0.0,0.0,0.0,0.0,0.0,0.0,0.0,0.0,0.0,0.0,0.0,0.0,0.0,0.0,0.0,0.0,0.0,0.0,0.0,0.0,0.0,0.0,0.0,0.0,0.0,0.0,0.0,0.0,0.0,0.0,0.0,0.0,0.0,0.0
40694000000,11419,40698000000,odom,base_footprint,3.441914548914758e-06,2.3817399209874148e-05,-0.001007399149221374,-1.7796693874248873e-06,0.0015896502850016438,7.42062211900813e-05,0.9999987337503188,1e-05,0.0,0.0,0.0,0.0,0.0,0.0,1e-05,0.0,0.0,0.0,0.0,0.0,0.0,1000000000000.0,0.0,0.0,0.0,0.0,0.0,0.0,1000000000000.0,0.0,0.0,0.0,0.0,0.0,0.0,1000000000000.0,0.0,0.0,0.0,0.0,0.0,0.0,0.001,6.423960848051267e-07,1.1874434542938973e-06,0.0,0.0,0.0,7.698855744659348e-06,0.0,0.0,0.0,0.0,0.0,0.0,0.0,0.0,0.0,0.0,0.0,0.0,0.0,0.0,0.0,0.0,0.0,0.0,0.0,0.0,0.0,0.0,0.0,0.0,0.0,0.0,0.0,0.0,0.0,0.0,0.0,0.0,0.0,0.0,0.0,0.0
40726000000,11420,40731000000,odom,base_footprint,3.44908134918432e-06,2.383714468719077e-05,-0.0010073991492292635,-1.779767923634849e-06,0.00158965028491728,7.426822700210464e-05,0.9999987337457157,1e-05,0.0,0.0,0.0,0.0,0.0,0.0,1e-05,0.0,0.0,0.0,0.0,0.0,0.0,1000000000000.0,0.0,0.0,0.0,0.0,0.0,0.0,1000000000000.0,0.0,0.0,0.0,0.0,0.0,0.0,1000000000000.0,0.0,0.0,0.0,0.0,0.0,0.0,0.001,6.423996286508699e-07,1.1874539287495727e-06,0.0,0.0,0.0,7.69892081999257e-06,0.0,0.0,0.0,0.0,0.0,0.0,0.0,0.0,0.0,0.0,0.0,0.0,0.0,0.0,0.0,0.0,0.0,0.0,0.0,0.0,0.0,0.0,0.0,0.0,0.0,0.0,0.0,0.0,0.0,0.0,0.0,0.0,0.0,0.0,0.0,0.0
40767000000,11421,40767000000,odom,base_footprint,3.456037373685515e-06,2.3856309457068108e-05,-0.0010073991492369205,-1.7798635619488954e-06,0.0015896502848353755,7.432840924444994e-05,0.9999987337412443,1e-05,0.0,0.0,0.0,0.0,0.0,0.0,1e-05,0.0,0.0,0.0,0.0,0.0,0.0,1000000000000.0,0.0,0.0,0.0,0.0,0.0,0.0,1000000000000.0,0.0,0.0,0.0,0.0,0.0,0.0,1000000000000.0,0.0,0.0,0.0,0.0,0.0,0.0,0.001,6.424030637489364e-07,1.1874640815055513e-06,0.0,0.0,0.0,7.698983897440592e-06,0.0,0.0,0.0,0.0,0.0,0.0,0.0,0.0,0.0,0.0,0.0,0.0,0.0,0.0,0.0,0.0,0.0,0.0,0.0,0.0,0.0,0.0,0.0,0.0,0.0,0.0,0.0,0.0,0.0,0.0,0.0,0.0,0.0,0.0,0.0,0.0
40802000000,11422,40799000000,odom,base_footprint,3.462993410496308e-06,2.3875474268279872e-05,-0.0010073991492445845,-1.7799592004461942e-06,0.0015896502847535115,7.438859161572429e-05,0.999998733736769,1e-05,0.0,0.0,0.0,0.0,0.0,0.0,1e-05,0.0,0.0,0.0,0.0,0.0,0.0,1000000000000.0,0.0,0.0,0.0,0.0,0.0,0.0,1000000000000.0,0.0,0.0,0.0,0.0,0.0,0.0,1000000000000.0,0.0,0.0,0.0,0.0,0.0,0.0,0.001,6.424065031116316e-07,1.1874742471887993e-06,0.0,0.0,0.0,7.699047054476779e-06,0.0,0.0,0.0,0.0,0.0,0.0,0.0,0.0,0.0,0.0,0.0,0.0,0.0,0.0,0.0,0.0,0.0,0.0,0.0,0.0,0.0,0.0,0.0,0.0,0.0,0.0,0.0,0.0,0.0,0.0,0.0,0.0,0.0,0.0,0.0,0.0
40834000000,11423,40832000000,odom,base_footprint,3.4701602491717803e-06,2.3895219874542795e-05,-0.0010073991492524637,-1.7800577372741018e-06,0.0015896502846691036,7.445059782995665e-05,0.9999987337321545,1e-05,0.0,0.0,0.0,0.0,0.0,0.0,1e-05,0.0,0.0,0.0,0.0,0.0,0.0,1000000000000.0,0.0,0.0,0.0,0.0,0.0,0.0,1000000000000.0,0.0,0.0,0.0,0.0,0.0,0.0,1000000000000.0,0.0,0.0,0.0,0.0,0.0,0.0,0.001,6.424100431079802e-07,1.1874847100643632e-06,0.0,0.0,0.0,7.699112058454077e-06,0.0,0.0,0.0,0.0,0.0,0.0,0.0,0.0,0.0,0.0,0.0,0.0,0.0,0.0,0.0,0.0,0.0,0.0,0.0,0.0,0.0,0.0,0.0,0.0,0.0,0.0,0.0,0.0,0.0,0.0,0.0,0.0,0.0,0.0,0.0,0.0
40867000000,11424,40864000000,odom,base_footprint,3.4771163109539177e-06,2.3914384769579464e-05,-0.0010073991492601173,-1.7801533762032311e-06,0.0015896502845871995,7.451078046269855e-05,0.9999987337276721,1e-05,0.0,0.0,0.0,0.0,0.0,0.0,1e-05,0.0,0.0,0.0,0.0,0.0,0.0,1000000000000.0,0.0,0.0,0.0,0.0,0.0,0.0,1000000000000.0,0.0,0.0,0.0,0.0,0.0,0.0,1000000000000.0,0.0,0.0,0.0,0.0,0.0,0.0,0.001,6.42413481376151e-07,1.1874948723903368e-06,0.0,0.0,0.0,7.699175194890801e-06,0.0,0.0,0.0,0.0,0.0,0.0,0.0,0.0,0.0,0.0,0.0,0.0,0.0,0.0,0.0,0.0,0.0,0.0,0.0,0.0,0.0,0.0,0.0,0.0,0.0,0.0,0.0,0.0,0.0,0.0,0.0,0.0,0.0,0.0,0.0,0.0
40899000000,11425,40899000000,odom,base_footprint,3.4840723850473876e-06,2.393354970594684e-05,-0.0010073991492677813,-1.780249015302817e-06,0.0015896502845052975,7.457096322435797e-05,0.9999987337231858,1e-05,0.0,0.0,0.0,0.0,0.0,0.0,1e-05,0.0,0.0,0.0,0.0,0.0,0.0,1000000000000.0,0.0,0.0,0.0,0.0,0.0,0.0,1000000000000.0,0.0,0.0,0.0,0.0,0.0,0.0,1000000000000.0,0.0,0.0,0.0,0.0,0.0,0.0,0.001,6.424169183621522e-07,1.1875050308154533e-06,0.0,0.0,0.0,7.699238307156335e-06,0.0,0.0,0.0,0.0,0.0,0.0,0.0,0.0,0.0,0.0,0.0,0.0,0.0,0.0,0.0,0.0,0.0,0.0,0.0,0.0,0.0,0.0,0.0,0.0,0.0,0.0,0.0,0.0,0.0,0.0,0.0,0.0,0.0,0.0,0.0,0.0
40935000000,11426,40933000000,odom,base_footprint,3.4912392621226987e-06,2.3953295441148257e-05,-0.0010073991492756708,-1.7803475528085106e-06,0.0015896502844208987,7.463296984077564e-05,0.99999873371856,1e-05,0.0,0.0,0.0,0.0,0.0,0.0,1e-05,0.0,0.0,0.0,0.0,0.0,0.0,1000000000000.0,0.0,0.0,0.0,0.0,0.0,0.0,1000000000000.0,0.0,0.0,0.0,0.0,0.0,0.0,1000000000000.0,0.0,0.0,0.0,0.0,0.0,0.0,0.001,6.424204606724364e-07,1.1875155007171832e-06,0.0,0.0,0.0,7.699303354678632e-06,0.0,0.0,0.0,0.0,0.0,0.0,0.0,0.0,0.0,0.0,0.0,0.0,0.0,0.0,0.0,0.0,0.0,0.0,0.0,0.0,0.0,0.0,0.0,0.0,0.0,0.0,0.0,0.0,0.0,0.0,0.0,0.0,0.0,0.0,0.0,0.0
40966000000,11427,40967000000,odom,base_footprint,3.4981953611840436e-06,2.3972460461350188e-05,-0.0010073991492833348,-1.7804431923464489e-06,0.0015896502843389887,7.469315286393252e-05,0.9999987337140666,1e-05,0.0,0.0,0.0,0.0,0.0,0.0,1e-05,0.0,0.0,0.0,0.0,0.0,0.0,1000000000000.0,0.0,0.0,0.0,0.0,0.0,0.0,1000000000000.0,0.0,0.0,0.0,0.0,0.0,0.0,1000000000000.0,0.0,0.0,0.0,0.0,0.0,0.0,0.001,6.424238970535865e-07,1.1875256574560013e-06,0.0,0.0,0.0,7.69936645644359e-06,0.0,0.0,0.0,0.0,0.0,0.0,0.0,0.0,0.0,0.0,0.0,0.0,0.0,0.0,0.0,0.0,0.0,0.0,0.0,0.0,0.0,0.0,0.0,0.0,0.0,0.0,0.0,0.0,0.0,0.0,0.0,0.0,0.0,0.0,0.0,0.0
40999000000,11428,41000000000,odom,base_footprint,3.5051514725532515e-06,2.3991625522862902e-05,-0.0010073991492909884,-1.7805388320735076e-06,0.0015896502842570645,7.47533360159455e-05,0.9999987337095693,1e-05,0.0,0.0,0.0,0.0,0.0,0.0,1e-05,0.0,0.0,0.0,0.0,0.0,0.0,1000000000000.0,0.0,0.0,0.0,0.0,0.0,0.0,1000000000000.0,0.0,0.0,0.0,0.0,0.0,0.0,1000000000000.0,0.0,0.0,0.0,0.0,0.0,0.0,0.001,6.424273355750417e-07,1.1875358204719176e-06,0.0,0.0,0.0,7.699429597312207e-06,0.0,0.0,0.0,0.0,0.0,0.0,0.0,0.0,0.0,0.0,0.0,0.0,0.0,0.0,0.0,0.0,0.0,0.0,0.0,0.0,0.0,0.0,0.0,0.0,0.0,0.0,0.0,0.0,0.0,0.0,0.0,0.0,0.0,0.0,0.0,0.0
41042000000,11429,41032000000,odom,base_footprint,3.5123183880544223e-06,2.4011371387051115e-05,-0.0010073991492988744,-1.7806373702096764e-06,0.0015896502841726166,7.48153430346973e-05,0.9999987337049323,1e-05,0.0,0.0,0.0,0.0,0.0,0.0,1e-05,0.0,0.0,0.0,0.0,0.0,0.0,1000000000000.0,0.0,0.0,0.0,0.0,0.0,0.0,1000000000000.0,0.0,0.0,0.0,0.0,0.0,0.0,1000000000000.0,0.0,0.0,0.0,0.0,0.0,0.0,0.001,6.4243087689869e-07,1.1875462874167186e-06,0.0,0.0,0.0,7.699494626306297e-06,0.0,0.0,0.0,0.0,0.0,0.0,0.0,0.0,0.0,0.0,0.0,0.0,0.0,0.0,0.0,0.0,0.0,0.0,0.0,0.0,0.0,0.0,0.0,0.0,0.0,0.0,0.0,0.0,0.0,0.0,0.0,0.0,0.0,0.0,0.0,0.0
41067000000,11430,41067000000,odom,base_footprint,3.519274524402781e-06,2.4030536532427687e-05,-0.001007399149306535,-1.780733010343528e-06,0.0015896502840906854,7.487552644829791e-05,0.9999987337004277,1e-05,0.0,0.0,0.0,0.0,0.0,0.0,1e-05,0.0,0.0,0.0,0.0,0.0,0.0,1000000000000.0,0.0,0.0,0.0,0.0,0.0,0.0,1000000000000.0,0.0,0.0,0.0,0.0,0.0,0.0,1000000000000.0,0.0,0.0,0.0,0.0,0.0,0.0,0.001,6.424343150356908e-07,1.1875564493954127e-06,0.0,0.0,0.0,7.699557760452593e-06,0.0,0.0,0.0,0.0,0.0,0.0,0.0,0.0,0.0,0.0,0.0,0.0,0.0,0.0,0.0,0.0,0.0,0.0,0.0,0.0,0.0,0.0,0.0,0.0,0.0,0.0,0.0,0.0,0.0,0.0,0.0,0.0,0.0,0.0,0.0,0.0
41092000000,11431,41096000000,odom,base_footprint,3.526230673050329e-06,2.4049701719102123e-05,-0.001007399149314192,-1.7808286507172488e-06,0.001589650284008759,7.493570999071512e-05,0.9999987336959196,1e-05,0.0,0.0,0.0,0.0,0.0,0.0,1e-05,0.0,0.0,0.0,0.0,0.0,0.0,1000000000000.0,0.0,0.0,0.0,0.0,0.0,0.0,1000000000000.0,0.0,0.0,0.0,0.0,0.0,0.0,1000000000000.0,0.0,0.0,0.0,0.0,0.0,0.0,0.001,6.424377529041325e-07,1.1875666103772582e-06,0.0,0.0,0.0,7.699620888777204e-06,0.0,0.0,0.0,0.0,0.0,0.0,0.0,0.0,0.0,0.0,0.0,0.0,0.0,0.0,0.0,0.0,0.0,0.0,0.0,0.0,0.0,0.0,0.0,0.0,0.0,0.0,0.0,0.0,0.0,0.0,0.0,0.0,0.0,0.0,0.0,0.0
41134000000,11432,41134000000,odom,base_footprint,3.5333976269444e-06,2.406944771219051e-05,-0.0010073991493220816,-1.7809271894707532e-06,0.0015896502839243135,7.499771741153369e-05,0.9999987336912711,1e-05,0.0,0.0,0.0,0.0,0.0,0.0,1e-05,0.0,0.0,0.0,0.0,0.0,0.0,1000000000000.0,0.0,0.0,0.0,0.0,0.0,0.0,1000000000000.0,0.0,0.0,0.0,0.0,0.0,0.0,1000000000000.0,0.0,0.0,0.0,0.0,0.0,0.0,0.001,6.424412946195871e-07,1.1875770785363622e-06,0.0,0.0,0.0,7.699685925375722e-06,0.0,0.0,0.0,0.0,0.0,0.0,0.0,0.0,0.0,0.0,0.0,0.0,0.0,0.0,0.0,0.0,0.0,0.0,0.0,0.0,0.0,0.0,0.0,0.0,0.0,0.0,0.0,0.0,0.0,0.0,0.0,0.0,0.0,0.0,0.0,0.0
41166000000,11433,41167000000,odom,base_footprint,3.5403538005615576e-06,2.4088612982698102e-05,-0.0010073991493297525,-1.7810228302231885e-06,0.0015896502838423747,7.505790121544371e-05,0.9999987336867556,1e-05,0.0,0.0,0.0,0.0,0.0,0.0,1e-05,0.0,0.0,0.0,0.0,0.0,0.0,1000000000000.0,0.0,0.0,0.0,0.0,0.0,0.0,1000000000000.0,0.0,0.0,0.0,0.0,0.0,0.0,1000000000000.0,0.0,0.0,0.0,0.0,0.0,0.0,0.001,6.424447317106732e-07,1.1875872373459287e-06,0.0,0.0,0.0,7.699749039931568e-06,0.0,0.0,0.0,0.0,0.0,0.0,0.0,0.0,0.0,0.0,0.0,0.0,0.0,0.0,0.0,0.0,0.0,0.0,0.0,0.0,0.0,0.0,0.0,0.0,0.0,0.0,0.0,0.0,0.0,0.0,0.0,0.0,0.0,0.0,0.0,0.0
41209000000,11434,41197000000,odom,base_footprint,3.5473099864891805e-06,2.4107778294545228e-05,-0.001007399149337413,-1.7811184712130419e-06,0.0015896502837604316,7.51180851482988e-05,0.9999987336822364,1e-05,0.0,0.0,0.0,0.0,0.0,0.0,1e-05,0.0,0.0,0.0,0.0,0.0,0.0,1000000000000.0,0.0,0.0,0.0,0.0,0.0,0.0,1000000000000.0,0.0,0.0,0.0,0.0,0.0,0.0,1000000000000.0,0.0,0.0,0.0,0.0,0.0,0.0,0.001,6.424481700872155e-07,1.1875973999895433e-06,0.0,0.0,0.0,7.69981217834673e-06,0.0,0.0,0.0,0.0,0.0,0.0,0.0,0.0,0.0,0.0,0.0,0.0,0.0,0.0,0.0,0.0,0.0,0.0,0.0,0.0,0.0,0.0,0.0,0.0,0.0,0.0,0.0,0.0,0.0,0.0,0.0,0.0,0.0,0.0,0.0,0.0
41234000000,11435,41230000000,odom,base_footprint,3.5544769787987027e-06,2.412752441660832e-05,-0.0010073991493453026,-1.7812170105960008e-06,0.0015896502836759692,7.518009297141417e-05,0.9999987336775765,1e-05,0.0,0.0,0.0,0.0,0.0,0.0,1e-05,0.0,0.0,0.0,0.0,0.0,0.0,1000000000000.0,0.0,0.0,0.0,0.0,0.0,0.0,1000000000000.0,0.0,0.0,0.0,0.0,0.0,0.0,1000000000000.0,0.0,0.0,0.0,0.0,0.0,0.0,0.001,6.424517107375617e-07,1.1876078649060178e-06,0.0,0.0,0.0,7.69987719507666e-06,0.0,0.0,0.0,0.0,0.0,0.0,0.0,0.0,0.0,0.0,0.0,0.0,0.0,0.0,0.0,0.0,0.0,0.0,0.0,0.0,0.0,0.0,0.0,0.0,0.0,0.0,0.0,0.0,0.0,0.0,0.0,0.0,0.0,0.0,0.0,0.0
41267000000,11436,41267000000,odom,base_footprint,3.5614331896942006e-06,2.4146689812285372e-05,-0.0010073991493529666,-1.781312651992426e-06,0.0015896502835940154,7.524027716575224e-05,0.99999873367305,1e-05,0.0,0.0,0.0,0.0,0.0,0.0,1e-05,0.0,0.0,0.0,0.0,0.0,0.0,1000000000000.0,0.0,0.0,0.0,0.0,0.0,0.0,1000000000000.0,0.0,0.0,0.0,0.0,0.0,0.0,1000000000000.0,0.0,0.0,0.0,0.0,0.0,0.0,0.001,6.424551495867028e-07,1.1876180288469434e-06,0.0,0.0,0.0,7.699940341594354e-06,0.0,0.0,0.0,0.0,0.0,0.0,0.0,0.0,0.0,0.0,0.0,0.0,0.0,0.0,0.0,0.0,0.0,0.0,0.0,0.0,0.0,0.0,0.0,0.0,0.0,0.0,0.0,0.0,0.0,0.0,0.0,0.0,0.0,0.0,0.0,0.0
41292000000,11437,41298000000,odom,base_footprint,3.5683894129027657e-06,2.4165855249278844e-05,-0.0010073991493606237,-1.7814082935774648e-06,0.0015896502835120447,7.530046148896384e-05,0.9999987336685198,1e-05,0.0,0.0,0.0,0.0,0.0,0.0,1e-05,0.0,0.0,0.0,0.0,0.0,0.0,1000000000000.0,0.0,0.0,0.0,0.0,0.0,0.0,1000000000000.0,0.0,0.0,0.0,0.0,0.0,0.0,1000000000000.0,0.0,0.0,0.0,0.0,0.0,0.0,0.001,6.424585857232117e-07,1.1876281847870385e-06,0.0,0.0,0.0,7.700003438665359e-06,0.0,0.0,0.0,0.0,0.0,0.0,0.0,0.0,0.0,0.0,0.0,0.0,0.0,0.0,0.0,0.0,0.0,0.0,0.0,0.0,0.0,0.0,0.0,0.0,0.0,0.0,0.0,0.0,0.0,0.0,0.0,0.0,0.0,0.0,0.0,0.0
41333000000,11438,41333000000,odom,base_footprint,3.5755564436164636e-06,2.418560150029589e-05,-0.0010073991493685201,-1.7815068336103462e-06,0.0015896502834275845,7.536246971431207e-05,0.9999987336638486,1e-05,0.0,0.0,0.0,0.0,0.0,0.0,1e-05,0.0,0.0,0.0,0.0,0.0,0.0,1000000000000.0,0.0,0.0,0.0,0.0,0.0,0.0,1000000000000.0,0.0,0.0,0.0,0.0,0.0,0.0,1000000000000.0,0.0,0.0,0.0,0.0,0.0,0.0,0.001,6.424621275858189e-07,1.187638653331808e-06,0.0,0.0,0.0,7.70006847767267e-06,0.0,0.0,0.0,0.0,0.0,0.0,0.0,0.0,0.0,0.0,0.0,0.0,0.0,0.0,0.0,0.0,0.0,0.0,0.0,0.0,0.0,0.0,0.0,0.0,0.0,0.0,0.0,0.0,0.0,0.0,0.0,0.0,0.0,0.0,0.0,0.0
41370000000,11439,41365000000,odom,base_footprint,3.5825126918067815e-06,2.4204767021169002e-05,-0.0010073991493761841,-1.7816024756194369e-06,0.0015896502833456345,7.542265429916019e-05,0.9999987336593111,1e-05,0.0,0.0,0.0,0.0,0.0,0.0,1e-05,0.0,0.0,0.0,0.0,0.0,0.0,1000000000000.0,0.0,0.0,0.0,0.0,0.0,0.0,1000000000000.0,0.0,0.0,0.0,0.0,0.0,0.0,1000000000000.0,0.0,0.0,0.0,0.0,0.0,0.0,0.001,6.424655654029894e-07,1.1876488143746093e-06,0.0,0.0,0.0,7.700131606168137e-06,0.0,0.0,0.0,0.0,0.0,0.0,0.0,0.0,0.0,0.0,0.0,0.0,0.0,0.0,0.0,0.0,0.0,0.0,0.0,0.0,0.0,0.0,0.0,0.0,0.0,0.0,0.0,0.0,0.0,0.0,0.0,0.0,0.0,0.0,0.0,0.0
41402000000,11440,41396000000,odom,base_footprint,3.5894689522954215e-06,2.4223932583324473e-05,-0.0010073991493838412,-1.7816981178345547e-06,0.0015896502832635968,7.54828390127768e-05,0.99999873365477,1e-05,0.0,0.0,0.0,0.0,0.0,0.0,1e-05,0.0,0.0,0.0,0.0,0.0,0.0,1000000000000.0,0.0,0.0,0.0,0.0,0.0,0.0,1000000000000.0,0.0,0.0,0.0,0.0,0.0,0.0,1000000000000.0,0.0,0.0,0.0,0.0,0.0,0.0,0.001,6.424690038313665e-07,1.187658977057597e-06,0.0,0.0,0.0,7.70019474490075e-06,0.0,0.0,0.0,0.0,0.0,0.0,0.0,0.0,0.0,0.0,0.0,0.0,0.0,0.0,0.0,0.0,0.0,0.0,0.0,0.0,0.0,0.0,0.0,0.0,0.0,0.0,0.0,0.0,0.0,0.0,0.0,0.0,0.0,0.0,0.0,0.0
41434000000,11441,41433000000,odom,base_footprint,3.596636021429775e-06,2.4243678963316032e-05,-0.0010073991493917377,-1.7817966585070803e-06,0.0015896502831791383,7.554484764042127e-05,0.9999987336500875,1e-05,0.0,0.0,0.0,0.0,0.0,0.0,1e-05,0.0,0.0,0.0,0.0,0.0,0.0,1000000000000.0,0.0,0.0,0.0,0.0,0.0,0.0,1000000000000.0,0.0,0.0,0.0,0.0,0.0,0.0,1000000000000.0,0.0,0.0,0.0,0.0,0.0,0.0,0.001,6.424725452502923e-07,1.1876694443155666e-06,0.0,0.0,0.0,7.700259775836351e-06,0.0,0.0,0.0,0.0,0.0,0.0,0.0,0.0,0.0,0.0,0.0,0.0,0.0,0.0,0.0,0.0,0.0,0.0,0.0,0.0,0.0,0.0,0.0,0.0,0.0,0.0,0.0,0.0,0.0,0.0,0.0,0.0,0.0,0.0,0.0,0.0
41467000000,11442,41465000000,odom,base_footprint,3.603592306894096e-06,2.4262844609323333e-05,-0.0010073991493994086,-1.781892301112179e-06,0.001589650283097156,7.560503261558838e-05,0.999998733645539,1e-05,0.0,0.0,0.0,0.0,0.0,0.0,1e-05,0.0,0.0,0.0,0.0,0.0,0.0,1000000000000.0,0.0,0.0,0.0,0.0,0.0,0.0,1000000000000.0,0.0,0.0,0.0,0.0,0.0,0.0,1000000000000.0,0.0,0.0,0.0,0.0,0.0,0.0,0.001,6.424759812994684e-07,1.1876795999371794e-06,0.0,0.0,0.0,7.70032287100162e-06,0.0,0.0,0.0,0.0,0.0,0.0,0.0,0.0,0.0,0.0,0.0,0.0,0.0,0.0,0.0,0.0,0.0,0.0,0.0,0.0,0.0,0.0,0.0,0.0,0.0,0.0,0.0,0.0,0.0,0.0,0.0,0.0,0.0,0.0,0.0,0.0
41500000000,11443,41499000000,odom,base_footprint,3.61054860465327e-06,2.4282010296624863e-05,-0.0010073991494070587,-1.7819879439370078e-06,0.0015896502830151271,7.56652177195607e-05,0.9999987336409867,1e-05,0.0,0.0,0.0,0.0,0.0,0.0,1e-05,0.0,0.0,0.0,0.0,0.0,0.0,1000000000000.0,0.0,0.0,0.0,0.0,0.0,0.0,1000000000000.0,0.0,0.0,0.0,0.0,0.0,0.0,1000000000000.0,0.0,0.0,0.0,0.0,0.0,0.0,0.001,6.424794195621964e-07,1.1876897623163706e-06,0.0,0.0,0.0,7.700386007824404e-06,0.0,0.0,0.0,0.0,0.0,0.0,0.0,0.0,0.0,0.0,0.0,0.0,0.0,0.0,0.0,0.0,0.0,0.0,0.0,0.0,0.0,0.0,0.0,0.0,0.0,0.0,0.0,0.0,0.0,0.0,0.0,0.0,0.0,0.0,0.0,0.0
41534000000,11444,41532000000,odom,base_footprint,3.617715712193534e-06,2.430175680555121e-05,-0.0010073991494149621,-1.7820864852472392e-06,0.0015896502829306446,7.57272267493789e-05,0.9999987336362929,1e-05,0.0,0.0,0.0,0.0,0.0,0.0,1e-05,0.0,0.0,0.0,0.0,0.0,0.0,1000000000000.0,0.0,0.0,0.0,0.0,0.0,0.0,1000000000000.0,0.0,0.0,0.0,0.0,0.0,0.0,1000000000000.0,0.0,0.0,0.0,0.0,0.0,0.0,0.001,6.424829624848469e-07,1.1877002339170504e-06,0.0,0.0,0.0,7.700451065660816e-06,0.0,0.0,0.0,0.0,0.0,0.0,0.0,0.0,0.0,0.0,0.0,0.0,0.0,0.0,0.0,0.0,0.0,0.0,0.0,0.0,0.0,0.0,0.0,0.0,0.0,0.0,0.0,0.0,0.0,0.0,0.0,0.0,0.0,0.0,0.0,0.0
41567000000,11445,41567000000,odom,base_footprint,3.6246720349440015e-06,2.4320922576745398e-05,-0.0010073991494226192,-1.7821821284894612e-06,0.001589650282848626,7.578741211502785e-05,0.9999987336317334,1e-05,0.0,0.0,0.0,0.0,0.0,0.0,1e-05,0.0,0.0,0.0,0.0,0.0,0.0,1000000000000.0,0.0,0.0,0.0,0.0,0.0,0.0,1000000000000.0,0.0,0.0,0.0,0.0,0.0,0.0,1000000000000.0,0.0,0.0,0.0,0.0,0.0,0.0,0.001,6.424864003815272e-07,1.1877103950671377e-06,0.0,0.0,0.0,7.70051419506069e-06,0.0,0.0,0.0,0.0,0.0,0.0,0.0,0.0,0.0,0.0,0.0,0.0,0.0,0.0,0.0,0.0,0.0,0.0,0.0,0.0,0.0,0.0,0.0,0.0,0.0,0.0,0.0,0.0,0.0,0.0,0.0,0.0,0.0,0.0,0.0,0.0
41600000000,11446,41600000000,odom,base_footprint,3.6316283699910565e-06,2.4340088389224014e-05,-0.0010073991494302902,-1.782277771932569e-06,0.001589650282766636,7.584759760945169e-05,0.9999987336271703,1e-05,0.0,0.0,0.0,0.0,0.0,0.0,1e-05,0.0,0.0,0.0,0.0,0.0,0.0,1000000000000.0,0.0,0.0,0.0,0.0,0.0,0.0,1000000000000.0,0.0,0.0,0.0,0.0,0.0,0.0,1000000000000.0,0.0,0.0,0.0,0.0,0.0,0.0,0.001,6.424898370437888e-07,1.1877205526333143e-06,0.0,0.0,0.0,7.70057730210944e-06,0.0,0.0,0.0,0.0,0.0,0.0,0.0,0.0,0.0,0.0,0.0,0.0,0.0,0.0,0.0,0.0,0.0,0.0,0.0,0.0,0.0,0.0,0.0,0.0,0.0,0.0,0.0,0.0,0.0,0.0,0.0,0.0,0.0,0.0,0.0,0.0
41632000000,11447,41633000000,odom,base_footprint,3.638795515943302e-06,2.4359835027118223e-05,-0.0010073991494381832,-1.7823763138750818e-06,0.0015896502826821194,7.590960704154559e-05,0.9999987336224649,1e-05,0.0,0.0,0.0,0.0,0.0,0.0,1e-05,0.0,0.0,0.0,0.0,0.0,0.0,1000000000000.0,0.0,0.0,0.0,0.0,0.0,0.0,1000000000000.0,0.0,0.0,0.0,0.0,0.0,0.0,1000000000000.0,0.0,0.0,0.0,0.0,0.0,0.0,0.001,6.42493379245602e-07,1.1877310221222668e-06,0.0,0.0,0.0,7.700642347071993e-06,0.0,0.0,0.0,0.0,0.0,0.0,0.0,0.0,0.0,0.0,0.0,0.0,0.0,0.0,0.0,0.0,0.0,0.0,0.0,0.0,0.0,0.0,0.0,0.0,0.0,0.0,0.0,0.0,0.0,0.0,0.0,0.0,0.0,0.0,0.0,0.0
41668000000,11448,41666000000,odom,base_footprint,3.6457518759738447e-06,2.4379000923473153e-05,-0.0010073991494458472,-1.782471957736362e-06,0.0015896502826000932,7.596979279759564e-05,0.9999987336178945,1e-05,0.0,0.0,0.0,0.0,0.0,0.0,1e-05,0.0,0.0,0.0,0.0,0.0,0.0,1000000000000.0,0.0,0.0,0.0,0.0,0.0,0.0,1000000000000.0,0.0,0.0,0.0,0.0,0.0,0.0,1000000000000.0,0.0,0.0,0.0,0.0,0.0,0.0,0.001,6.424968173343551e-07,1.187741183882277e-06,0.0,0.0,0.0,7.700705480164192e-06,0.0,0.0,0.0,0.0,0.0,0.0,0.0,0.0,0.0,0.0,0.0,0.0,0.0,0.0,0.0,0.0,0.0,0.0,0.0,0.0,0.0,0.0,0.0,0.0,0.0,0.0,0.0,0.0,0.0,0.0,0.0,0.0,0.0,0.0,0.0,0.0
41701000000,11449,41700000000,odom,base_footprint,3.6527082482957704e-06,2.439816686110456e-05,-0.001007399149453518,-1.7825676017927042e-06,0.0015896502825180827,7.602997868239607e-05,0.9999987336133201,1e-05,0.0,0.0,0.0,0.0,0.0,0.0,1e-05,0.0,0.0,0.0,0.0,0.0,0.0,1000000000000.0,0.0,0.0,0.0,0.0,0.0,0.0,1000000000000.0,0.0,0.0,0.0,0.0,0.0,0.0,1000000000000.0,0.0,0.0,0.0,0.0,0.0,0.0,0.001,6.425002543283929e-07,1.187751342418389e-06,0.0,0.0,0.0,7.70076859320891e-06,0.0,0.0,0.0,0.0,0.0,0.0,0.0,0.0,0.0,0.0,0.0,0.0,0.0,0.0,0.0,0.0,0.0,0.0,0.0,0.0,0.0,0.0,0.0,0.0,0.0,0.0,0.0,0.0,0.0,0.0,0.0,0.0,0.0,0.0,0.0,0.0
41743000000,11450,41733000000,odom,base_footprint,3.659875432657396e-06,2.4417913627958197e-05,-0.0010073991494614076,-1.7826661443728214e-06,0.001589650282433535,7.609198851673976e-05,0.9999987336086038,1e-05,0.0,0.0,0.0,0.0,0.0,0.0,1e-05,0.0,0.0,0.0,0.0,0.0,0.0,1000000000000.0,0.0,0.0,0.0,0.0,0.0,0.0,1000000000000.0,0.0,0.0,0.0,0.0,0.0,0.0,1000000000000.0,0.0,0.0,0.0,0.0,0.0,0.0,0.001,6.425037979467561e-07,1.18776181619768e-06,0.0,0.0,0.0,7.700833664601418e-06,0.0,0.0,0.0,0.0,0.0,0.0,0.0,0.0,0.0,0.0,0.0,0.0,0.0,0.0,0.0,0.0,0.0,0.0,0.0,0.0,0.0,0.0,0.0,0.0,0.0,0.0,0.0,0.0,0.0,0.0,0.0,0.0,0.0,0.0,0.0,0.0
41768000000,11451,41759000000,odom,base_footprint,3.6668318299680133e-06,2.4437079649477687e-05,-0.0010073991494690786,-1.7827617888607976e-06,0.0015896502823514983,7.615217466320272e-05,0.9999987336040221,1e-05,0.0,0.0,0.0,0.0,0.0,0.0,1e-05,0.0,0.0,0.0,0.0,0.0,0.0,1000000000000.0,0.0,0.0,0.0,0.0,0.0,0.0,1000000000000.0,0.0,0.0,0.0,0.0,0.0,0.0,1000000000000.0,0.0,0.0,0.0,0.0,0.0,0.0,0.001,6.425072341726996e-07,1.1877719723621172e-06,0.0,0.0,0.0,7.700896763148525e-06,0.0,0.0,0.0,0.0,0.0,0.0,0.0,0.0,0.0,0.0,0.0,0.0,0.0,0.0,0.0,0.0,0.0,0.0,0.0,0.0,0.0,0.0,0.0,0.0,0.0,0.0,0.0,0.0,0.0,0.0,0.0,0.0,0.0,0.0,0.0,0.0
41802000000,11452,41793000000,odom,base_footprint,3.673788239579555e-06,2.4456245712288536e-05,-0.0010073991494767426,-1.782857433527399e-06,0.0015896502822694367,7.621236093846178e-05,0.999998733599437,1e-05,0.0,0.0,0.0,0.0,0.0,0.0,1e-05,0.0,0.0,0.0,0.0,0.0,0.0,1000000000000.0,0.0,0.0,0.0,0.0,0.0,0.0,1000000000000.0,0.0,0.0,0.0,0.0,0.0,0.0,1000000000000.0,0.0,0.0,0.0,0.0,0.0,0.0,0.001,6.425106720940997e-07,1.1877821336394258e-06,0.0,0.0,0.0,7.700959893088313e-06,0.0,0.0,0.0,0.0,0.0,0.0,0.0,0.0,0.0,0.0,0.0,0.0,0.0,0.0,0.0,0.0,0.0,0.0,0.0,0.0,0.0,0.0,0.0,0.0,0.0,0.0,0.0,0.0,0.0,0.0,0.0,0.0,0.0,0.0,0.0,0.0
41833000000,11453,41833000000,odom,base_footprint,3.6809554623488255e-06,2.4475992608093215e-05,-0.0010073991494846425,-1.7829559767543621e-06,0.0015896502821849212,7.62743711750294e-05,0.9999987335947091,1e-05,0.0,0.0,0.0,0.0,0.0,0.0,1e-05,0.0,0.0,0.0,0.0,0.0,0.0,1000000000000.0,0.0,0.0,0.0,0.0,0.0,0.0,1000000000000.0,0.0,0.0,0.0,0.0,0.0,0.0,1000000000000.0,0.0,0.0,0.0,0.0,0.0,0.0,0.001,6.425142137853936e-07,1.1877926015254798e-06,0.0,0.0,0.0,7.701024928260714e-06,0.0,0.0,0.0,0.0,0.0,0.0,0.0,0.0,0.0,0.0,0.0,0.0,0.0,0.0,0.0,0.0,0.0,0.0,0.0,0.0,0.0,0.0,0.0,0.0,0.0,0.0,0.0,0.0,0.0,0.0,0.0,0.0,0.0,0.0,0.0,0.0
41871000000,11454,41847000000,odom,base_footprint,3.6879118969386504e-06,2.4495158754784026e-05,-0.00100739914949231,-1.7830516218585548e-06,0.0015896502821028573,7.633455771192606e-05,0.9999987335901165,1e-05,0.0,0.0,0.0,0.0,0.0,0.0,1e-05,0.0,0.0,0.0,0.0,0.0,0.0,1000000000000.0,0.0,0.0,0.0,0.0,0.0,0.0,1000000000000.0,0.0,0.0,0.0,0.0,0.0,0.0,1000000000000.0,0.0,0.0,0.0,0.0,0.0,0.0,0.001,6.425176521101975e-07,1.1878027640087684e-06,0.0,0.0,0.0,7.701088065835712e-06,0.0,0.0,0.0,0.0,0.0,0.0,0.0,0.0,0.0,0.0,0.0,0.0,0.0,0.0,0.0,0.0,0.0,0.0,0.0,0.0,0.0,0.0,0.0,0.0,0.0,0.0,0.0,0.0,0.0,0.0,0.0,0.0,0.0,0.0,0.0,0.0
