%time,field.header.seq,field.header.stamp,field.header.frame_id,field.child_frame_id,field.pose.pose.position.x,field.pose.pose.position.y,field.pose.pose.position.z,field.pose.pose.orientation.x,field.pose.pose.orientation.y,field.pose.pose.orientation.z,field.pose.pose.orientation.w,field.pose.covariance0,field.pose.covariance1,field.pose.covariance2,field.pose.covariance3,field.pose.covariance4,field.pose.covariance5,field.pose.covariance6,field.pose.covariance7,field.pose.covariance8,field.pose.covariance9,field.pose.covariance10,field.pose.covariance11,field.pose.covariance12,field.pose.covariance13,field.pose.covariance14,field.pose.covariance15,field.pose.covariance16,field.pose.covariance17,field.pose.covariance18,field.pose.covariance19,field.pose.covariance20,field.pose.covariance21,field.pose.covariance22,field.pose.covariance23,field.pose.covariance24,field.pose.covariance25,field.pose.covariance26,field.pose.covariance27,field.pose.covariance28,field.pose.covariance29,field.pose.covariance30,field.pose.covariance31,field.pose.covariance32,field.pose.covariance33,field.pose.covariance34,field.pose.covariance35,field.twist.twist.linear.x,field.twist.twist.linear.y,field.twist.twist.linear.z,field.twist.twist.angular.x,field.twist.twist.angular.y,field.twist.twist.angular.z,field.twist.covariance0,field.twist.covariance1,field.twist.covariance2,field.twist.covariance3,field.twist.covariance4,field.twist.covariance5,field.twist.covariance6,field.twist.covariance7,field.twist.covariance8,field.twist.covariance9,field.twist.covariance10,field.twist.covariance11,field.twist.covariance12,field.twist.covariance13,field.twist.covariance14,field.twist.covariance15,field.twist.covariance16,field.twist.covariance17,field.twist.covariance18,field.twist.covariance19,field.twist.covariance20,field.twist.covariance21,field.twist.covariance22,field.twist.covariance23,field.twist.covariance24,field.twist.covariance25,field.twist.covariance26,field.twist.covariance27,field.twist.covariance28,field.twist.covariance29,field.twist.covariance30,field.twist.covariance31,field.twist.covariance32,field.twist.covariance33,field.twist.covariance34,field.twist.covariance35
24634000000,9244,24633000000,odom,base_footprint,5.710231280788708e-08,1.4491983478190229e-05,-0.0010073991455239809,-1.7331308146606632e-06,0.0015896503242558476,4.492098281842683e-05,0.9999987354946747,1e-05,0.0,0.0,0.0,0.0,0.0,0.0,1e-05,0.0,0.0,0.0,0.0,0.0,0.0,1000000000000.0,0.0,0.0,0.0,0.0,0.0,0.0,1000000000000.0,0.0,0.0,0.0,0.0,0.0,0.0,1000000000000.0,0.0,0.0,0.0,0.0,0.0,0.0,0.001,6.407261942782317e-07,1.1825078768811655e-06,0.0,0.0,0.0,7.668191950230564e-06,0.0,0.0,0.0,0.0,0.0,0.0,0.0,0.0,0.0,0.0,0.0,0.0,0.0,0.0,0.0,0.0,0.0,0.0,0.0,0.0,0.0,0.0,0.0,0.0,0.0,0.0,0.0,0.0,0.0,0.0,0.0,0.0,0.0,0.0,0.0,0.0
24667000000,9245,24666000000,odom,base_footprint,6.40523378850344e-08,1.4511128110220917e-05,-0.00100739914553152,-1.7332263535038804e-06,0.0015896503241765207,4.498110224657591e-05,0.9999987354919723,1e-05,0.0,0.0,0.0,0.0,0.0,0.0,1e-05,0.0,0.0,0.0,0.0,0.0,0.0,1000000000000.0,0.0,0.0,0.0,0.0,0.0,0.0,1000000000000.0,0.0,0.0,0.0,0.0,0.0,0.0,1000000000000.0,0.0,0.0,0.0,0.0,0.0,0.0,0.001,6.407296115055619e-07,1.1825179768217646e-06,0.0,0.0,0.0,7.668254700509774e-06,0.0,0.0,0.0,0.0,0.0,0.0,0.0,0.0,0.0,0.0,0.0,0.0,0.0,0.0,0.0,0.0,0.0,0.0,0.0,0.0,0.0,0.0,0.0,0.0,0.0,0.0,0.0,0.0,0.0,0.0,0.0,0.0,0.0,0.0,0.0,0.0
24700000000,9246,24699000000,odom,base_footprint,7.100237525183017e-08,1.4530272783483996e-05,-0.0010073991455390695,-1.733321892552744e-06,0.001589650324097186,4.5041221803338565e-05,0.999998735489266,1e-05,0.0,0.0,0.0,0.0,0.0,0.0,1e-05,0.0,0.0,0.0,0.0,0.0,0.0,1000000000000.0,0.0,0.0,0.0,0.0,0.0,0.0,1000000000000.0,0.0,0.0,0.0,0.0,0.0,0.0,1000000000000.0,0.0,0.0,0.0,0.0,0.0,0.0,0.001,6.40733027326381e-07,1.1825280724656156e-06,0.0,0.0,0.0,7.668317423972502e-06,0.0,0.0,0.0,0.0,0.0,0.0,0.0,0.0,0.0,0.0,0.0,0.0,0.0,0.0,0.0,0.0,0.0,0.0,0.0,0.0,0.0,0.0,0.0,0.0,0.0,0.0,0.0,0.0,0.0,0.0,0.0,0.0,0.0,0.0,0.0,0.0
24735000000,9247,24726000000,odom,base_footprint,7.816303267387664e-08,1.4549997641523735e-05,-0.001007399145546841,-1.7334203269466786e-06,0.0015896503240154169,4.5103163299484806e-05,0.9999987354864742,1e-05,0.0,0.0,0.0,0.0,0.0,0.0,1e-05,0.0,0.0,0.0,0.0,0.0,0.0,1000000000000.0,0.0,0.0,0.0,0.0,0.0,0.0,1000000000000.0,0.0,0.0,0.0,0.0,0.0,0.0,1000000000000.0,0.0,0.0,0.0,0.0,0.0,0.0,0.001,6.407365480943902e-07,1.182538478260416e-06,0.0,0.0,0.0,7.668382074597475e-06,0.0,0.0,0.0,0.0,0.0,0.0,0.0,0.0,0.0,0.0,0.0,0.0,0.0,0.0,0.0,0.0,0.0,0.0,0.0,0.0,0.0,0.0,0.0,0.0,0.0,0.0,0.0,0.0,0.0,0.0,0.0,0.0,0.0,0.0,0.0,0.0
24770000000,9248,24767000000,odom,base_footprint,8.511309499033282e-08,1.4569142398524557e-05,-0.0010073991455543836,-1.7335158664101098e-06,0.0015896503239360774,4.516328311744441e-05,0.9999987354837608,1e-05,0.0,0.0,0.0,0.0,0.0,0.0,1e-05,0.0,0.0,0.0,0.0,0.0,0.0,1000000000000.0,0.0,0.0,0.0,0.0,0.0,0.0,1000000000000.0,0.0,0.0,0.0,0.0,0.0,0.0,1000000000000.0,0.0,0.0,0.0,0.0,0.0,0.0,0.001,6.407399640162173e-07,1.1825485742299283e-06,0.0,0.0,0.0,7.668444800273923e-06,0.0,0.0,0.0,0.0,0.0,0.0,0.0,0.0,0.0,0.0,0.0,0.0,0.0,0.0,0.0,0.0,0.0,0.0,0.0,0.0,0.0,0.0,0.0,0.0,0.0,0.0,0.0,0.0,0.0,0.0,0.0,0.0,0.0,0.0,0.0,0.0
24803000000,9249,24794000000,odom,base_footprint,9.206316960337635e-08,1.4588287196789215e-05,-0.0010073991455619158,-1.7336114060675275e-06,0.0015896503238567014,4.522340306411455e-05,0.9999987354810436,1e-05,0.0,0.0,0.0,0.0,0.0,0.0,1e-05,0.0,0.0,0.0,0.0,0.0,0.0,1000000000000.0,0.0,0.0,0.0,0.0,0.0,0.0,1000000000000.0,0.0,0.0,0.0,0.0,0.0,0.0,1000000000000.0,0.0,0.0,0.0,0.0,0.0,0.0,0.001,6.407433795226713e-07,1.1825586690171946e-06,0.0,0.0,0.0,7.668507518553467e-06,0.0,0.0,0.0,0.0,0.0,0.0,0.0,0.0,0.0,0.0,0.0,0.0,0.0,0.0,0.0,0.0,0.0,0.0,0.0,0.0,0.0,0.0,0.0,0.0,0.0,0.0,0.0,0.0,0.0,0.0,0.0,0.0,0.0,0.0,0.0,0.0
24838000000,9250,24831000000,odom,base_footprint,9.922386539663874e-08,1.460801218360864e-05,-0.0010073991455696978,-1.7337098411073094e-06,0.0015896503237749298,4.528534496195346e-05,0.9999987354782405,1e-05,0.0,0.0,0.0,0.0,0.0,0.0,1e-05,0.0,0.0,0.0,0.0,0.0,0.0,1000000000000.0,0.0,0.0,0.0,0.0,0.0,0.0,1000000000000.0,0.0,0.0,0.0,0.0,0.0,0.0,1000000000000.0,0.0,0.0,0.0,0.0,0.0,0.0,0.001,6.407469000197112e-07,1.1825690740362583e-06,0.0,0.0,0.0,7.668572164267335e-06,0.0,0.0,0.0,0.0,0.0,0.0,0.0,0.0,0.0,0.0,0.0,0.0,0.0,0.0,0.0,0.0,0.0,0.0,0.0,0.0,0.0,0.0,0.0,0.0,0.0,0.0,0.0,0.0,0.0,0.0,0.0,0.0,0.0,0.0,0.0,0.0
24867000000,9251,24867000000,odom,base_footprint,1.0617396496454684e-07,1.4627157065622993e-05,-0.0010073991455772369,-1.733805381166115e-06,0.0015896503236955684,4.5345465169857434e-05,0.9999987354755161,1e-05,0.0,0.0,0.0,0.0,0.0,0.0,1e-05,0.0,0.0,0.0,0.0,0.0,0.0,1000000000000.0,0.0,0.0,0.0,0.0,0.0,0.0,1000000000000.0,0.0,0.0,0.0,0.0,0.0,0.0,1000000000000.0,0.0,0.0,0.0,0.0,0.0,0.0,0.001,6.407503167286147e-07,1.1825791723252845e-06,0.0,0.0,0.0,7.668634904152075e-06,0.0,0.0,0.0,0.0,0.0,0.0,0.0,0.0,0.0,0.0,0.0,0.0,0.0,0.0,0.0,0.0,0.0,0.0,0.0,0.0,0.0,0.0,0.0,0.0,0.0,0.0,0.0,0.0,0.0,0.0,0.0,0.0,0.0,0.0,0.0,0.0
24897000000,9252,24899000000,odom,base_footprint,1.1312407682383813e-07,1.4646301988887818e-05,-0.001007399145584783,-1.7339009214607714e-06,0.0015896503236161883,4.540558550643087e-05,0.9999987354727882,1e-05,0.0,0.0,0.0,0.0,0.0,0.0,1e-05,0.0,0.0,0.0,0.0,0.0,0.0,1000000000000.0,0.0,0.0,0.0,0.0,0.0,0.0,1000000000000.0,0.0,0.0,0.0,0.0,0.0,0.0,1000000000000.0,0.0,0.0,0.0,0.0,0.0,0.0,0.001,6.407537320614231e-07,1.1825892665100842e-06,0.0,0.0,0.0,7.668697618961754e-06,0.0,0.0,0.0,0.0,0.0,0.0,0.0,0.0,0.0,0.0,0.0,0.0,0.0,0.0,0.0,0.0,0.0,0.0,0.0,0.0,0.0,0.0,0.0,0.0,0.0,0.0,0.0,0.0,0.0,0.0,0.0,0.0,0.0,0.0,0.0,0.0
24933000000,9253,24933000000,odom,base_footprint,1.2028481098397964e-07,1.4666027104463366e-05,-0.0010073991455925649,-1.733999357118335e-06,0.0015896503235344292,4.546752780588962e-05,0.9999987354699735,1e-05,0.0,0.0,0.0,0.0,0.0,0.0,1e-05,0.0,0.0,0.0,0.0,0.0,0.0,1000000000000.0,0.0,0.0,0.0,0.0,0.0,0.0,1000000000000.0,0.0,0.0,0.0,0.0,0.0,0.0,1000000000000.0,0.0,0.0,0.0,0.0,0.0,0.0,0.001,6.407572525046579e-07,1.1825996714732562e-06,0.0,0.0,0.0,7.66876226420555e-06,0.0,0.0,0.0,0.0,0.0,0.0,0.0,0.0,0.0,0.0,0.0,0.0,0.0,0.0,0.0,0.0,0.0,0.0,0.0,0.0,0.0,0.0,0.0,0.0,0.0,0.0,0.0,0.0,0.0,0.0,0.0,0.0,0.0,0.0,0.0,0.0
24967000000,9254,24966000000,odom,base_footprint,1.272349477911966e-07,1.4685172111448638e-05,-0.0010073991456001144,-1.7340948978069017e-06,0.0015896503234550418,4.5527648403606624e-05,0.9999987354672382,1e-05,0.0,0.0,0.0,0.0,0.0,0.0,1e-05,0.0,0.0,0.0,0.0,0.0,0.0,1000000000000.0,0.0,0.0,0.0,0.0,0.0,0.0,1000000000000.0,0.0,0.0,0.0,0.0,0.0,0.0,1000000000000.0,0.0,0.0,0.0,0.0,0.0,0.0,0.001,6.40760670088432e-07,1.1826097723809872e-06,0.0,0.0,0.0,7.66882502051336e-06,0.0,0.0,0.0,0.0,0.0,0.0,0.0,0.0,0.0,0.0,0.0,0.0,0.0,0.0,0.0,0.0,0.0,0.0,0.0,0.0,0.0,0.0,0.0,0.0,0.0,0.0,0.0,0.0,0.0,0.0,0.0,0.0,0.0,0.0,0.0,0.0
25007000000,9255,24993000000,odom,base_footprint,1.3418509688806202e-07,1.470431715968434e-05,-0.001007399145607664,-1.734190438715902e-06,0.00158965032337566,4.558776912999288e-05,0.9999987354644992,1e-05,0.0,0.0,0.0,0.0,0.0,0.0,1e-05,0.0,0.0,0.0,0.0,0.0,0.0,1000000000000.0,0.0,0.0,0.0,0.0,0.0,0.0,1000000000000.0,0.0,0.0,0.0,0.0,0.0,0.0,1000000000000.0,0.0,0.0,0.0,0.0,0.0,0.0,0.001,6.407640850307291e-07,1.1826198653570082e-06,0.0,0.0,0.0,7.668887727714552e-06,0.0,0.0,0.0,0.0,0.0,0.0,0.0,0.0,0.0,0.0,0.0,0.0,0.0,0.0,0.0,0.0,0.0,0.0,0.0,0.0,0.0,0.0,0.0,0.0,0.0,0.0,0.0,0.0,0.0,0.0,0.0,0.0,0.0,0.0,0.0,0.0
25033000000,9256,25033000000,odom,base_footprint,1.4134586941768473e-07,1.4724042404033335e-05,-0.001007399145615432,-1.734288874998862e-06,0.0015896503232938545,4.5649711831125e-05,0.9999987354616735,1e-05,0.0,0.0,0.0,0.0,0.0,0.0,1e-05,0.0,0.0,0.0,0.0,0.0,0.0,1000000000000.0,0.0,0.0,0.0,0.0,0.0,0.0,1000000000000.0,0.0,0.0,0.0,0.0,0.0,0.0,1000000000000.0,0.0,0.0,0.0,0.0,0.0,0.0,0.001,6.407676058810514e-07,1.1826302714803695e-06,0.0,0.0,0.0,7.66895238016613e-06,0.0,0.0,0.0,0.0,0.0,0.0,0.0,0.0,0.0,0.0,0.0,0.0,0.0,0.0,0.0,0.0,0.0,0.0,0.0,0.0,0.0,0.0,0.0,0.0,0.0,0.0,0.0,0.0,0.0,0.0,0.0,0.0,0.0,0.0,0.0,0.0
25067000000,9257,25067000000,odom,base_footprint,1.4829604347982306e-07,1.4743187536039008e-05,-0.001007399145622985,-1.7343844163118365e-06,0.0015896503232144508,4.5709832818807676e-05,0.9999987354589271,1e-05,0.0,0.0,0.0,0.0,0.0,0.0,1e-05,0.0,0.0,0.0,0.0,0.0,0.0,1000000000000.0,0.0,0.0,0.0,0.0,0.0,0.0,1000000000000.0,0.0,0.0,0.0,0.0,0.0,0.0,1000000000000.0,0.0,0.0,0.0,0.0,0.0,0.0,0.001,6.407710224952941e-07,1.1826403695222468e-06,0.0,0.0,0.0,7.669015118731502e-06,0.0,0.0,0.0,0.0,0.0,0.0,0.0,0.0,0.0,0.0,0.0,0.0,0.0,0.0,0.0,0.0,0.0,0.0,0.0,0.0,0.0,0.0,0.0,0.0,0.0,0.0,0.0,0.0,0.0,0.0,0.0,0.0,0.0,0.0,0.0,0.0
25100000000,9258,25099000000,odom,base_footprint,1.552462298212015e-07,1.4762332709268024e-05,-0.001007399145630531,-1.734479957828247e-06,0.0015896503231350675,4.576995393507594e-05,0.999998735456177,1e-05,0.0,0.0,0.0,0.0,0.0,0.0,1e-05,0.0,0.0,0.0,0.0,0.0,0.0,1000000000000.0,0.0,0.0,0.0,0.0,0.0,0.0,1000000000000.0,0.0,0.0,0.0,0.0,0.0,0.0,1000000000000.0,0.0,0.0,0.0,0.0,0.0,0.0,0.001,6.407744382574513e-07,1.1826504649862396e-06,0.0,0.0,0.0,7.669077841375382e-06,0.0,0.0,0.0,0.0,0.0,0.0,0.0,0.0,0.0,0.0,0.0,0.0,0.0,0.0,0.0,0.0,0.0,0.0,0.0,0.0,0.0,0.0,0.0,0.0,0.0,0.0,0.0,0.0,0.0,0.0,0.0,0.0,0.0,0.0,0.0,0.0
25135000000,9259,25126000000,odom,base_footprint,1.6240704072724432e-07,1.4782058082403296e-05,-0.0010073991456382957,-1.734578394755543e-06,0.0015896503230532265,4.5831897037921044e-05,0.99999873545334,1e-05,0.0,0.0,0.0,0.0,0.0,0.0,1e-05,0.0,0.0,0.0,0.0,0.0,0.0,1000000000000.0,0.0,0.0,0.0,0.0,0.0,0.0,1000000000000.0,0.0,0.0,0.0,0.0,0.0,0.0,1000000000000.0,0.0,0.0,0.0,0.0,0.0,0.0,0.001,6.407779586855312e-07,1.1826608698372361e-06,0.0,0.0,0.0,7.669142485960734e-06,0.0,0.0,0.0,0.0,0.0,0.0,0.0,0.0,0.0,0.0,0.0,0.0,0.0,0.0,0.0,0.0,0.0,0.0,0.0,0.0,0.0,0.0,0.0,0.0,0.0,0.0,0.0,0.0,0.0,0.0,0.0,0.0,0.0,0.0,0.0,0.0
25161000000,9260,25161000000,odom,base_footprint,1.6935725202348734e-07,1.4801203339374397e-05,-0.0010073991456458521,-1.734673936677783e-06,0.0015896503229738236,4.589201841539967e-05,0.9999987354505827,1e-05,0.0,0.0,0.0,0.0,0.0,0.0,1e-05,0.0,0.0,0.0,0.0,0.0,0.0,1000000000000.0,0.0,0.0,0.0,0.0,0.0,0.0,1000000000000.0,0.0,0.0,0.0,0.0,0.0,0.0,1000000000000.0,0.0,0.0,0.0,0.0,0.0,0.0,0.001,6.407813747384208e-07,1.182670966179242e-06,0.0,0.0,0.0,7.669205213981547e-06,0.0,0.0,0.0,0.0,0.0,0.0,0.0,0.0,0.0,0.0,0.0,0.0,0.0,0.0,0.0,0.0,0.0,0.0,0.0,0.0,0.0,0.0,0.0,0.0,0.0,0.0,0.0,0.0,0.0,0.0,0.0,0.0,0.0,0.0,0.0,0.0
25196000000,9261,25196000000,odom,base_footprint,1.7630747560677673e-07,1.4820348637578192e-05,-0.001007399145653405,-1.7347694788129555e-06,0.001589650322894413,4.595213992149282e-05,0.9999987354478218,1e-05,0.0,0.0,0.0,0.0,0.0,0.0,1e-05,0.0,0.0,0.0,0.0,0.0,0.0,1000000000000.0,0.0,0.0,0.0,0.0,0.0,0.0,1000000000000.0,0.0,0.0,0.0,0.0,0.0,0.0,1000000000000.0,0.0,0.0,0.0,0.0,0.0,0.0,0.001,6.407847906205045e-07,1.1826810619305033e-06,0.0,0.0,0.0,7.669267938496028e-06,0.0,0.0,0.0,0.0,0.0,0.0,0.0,0.0,0.0,0.0,0.0,0.0,0.0,0.0,0.0,0.0,0.0,0.0,0.0,0.0,0.0,0.0,0.0,0.0,0.0,0.0,0.0,0.0,0.0,0.0,0.0,0.0,0.0,0.0,0.0,0.0
25235000000,9262,25233000000,odom,base_footprint,1.8346832488490283e-07,1.4840074139497157e-05,-0.0010073991456611767,-1.7348679163876927e-06,0.0015896503228125705,4.601408342604305e-05,0.9999987354449732,1e-05,0.0,0.0,0.0,0.0,0.0,0.0,1e-05,0.0,0.0,0.0,0.0,0.0,0.0,1000000000000.0,0.0,0.0,0.0,0.0,0.0,0.0,1000000000000.0,0.0,0.0,0.0,0.0,0.0,0.0,1000000000000.0,0.0,0.0,0.0,0.0,0.0,0.0,0.001,6.40788312097234e-07,1.182691469984995e-06,0.0,0.0,0.0,7.669332602866666e-06,0.0,0.0,0.0,0.0,0.0,0.0,0.0,0.0,0.0,0.0,0.0,0.0,0.0,0.0,0.0,0.0,0.0,0.0,0.0,0.0,0.0,0.0,0.0,0.0,0.0,0.0,0.0,0.0,0.0,0.0,0.0,0.0,0.0,0.0,0.0,0.0
25256000000,9263,25267000000,odom,base_footprint,1.904185734273936e-07,1.4859219521472978e-05,-0.0010073991456687331,-1.7349634589283595e-06,0.0015896503227331546,4.6074205193438954e-05,0.999998735442205,1e-05,0.0,0.0,0.0,0.0,0.0,0.0,1e-05,0.0,0.0,0.0,0.0,0.0,0.0,1000000000000.0,0.0,0.0,0.0,0.0,0.0,0.0,1000000000000.0,0.0,0.0,0.0,0.0,0.0,0.0,1000000000000.0,0.0,0.0,0.0,0.0,0.0,0.0,0.001,6.407917294606234e-07,1.1827015701893122e-06,0.0,0.0,0.0,7.669395354870397e-06,0.0,0.0,0.0,0.0,0.0,0.0,0.0,0.0,0.0,0.0,0.0,0.0,0.0,0.0,0.0,0.0,0.0,0.0,0.0,0.0,0.0,0.0,0.0,0.0,0.0,0.0,0.0,0.0,0.0,0.0,0.0,0.0,0.0,0.0,0.0,0.0
25300000000,9264,25299000000,odom,base_footprint,1.973688342760127e-07,1.487836494474796e-05,-0.0010073991456762688,-1.7350590016783448e-06,0.001589650322653707,4.6134327089654484e-05,0.9999987354394331,1e-05,0.0,0.0,0.0,0.0,0.0,0.0,1e-05,0.0,0.0,0.0,0.0,0.0,0.0,1000000000000.0,0.0,0.0,0.0,0.0,0.0,0.0,1000000000000.0,0.0,0.0,0.0,0.0,0.0,0.0,1000000000000.0,0.0,0.0,0.0,0.0,0.0,0.0,0.001,6.40795146050496e-07,1.182711668130335e-06,0.0,0.0,0.0,7.669458092713492e-06,0.0,0.0,0.0,0.0,0.0,0.0,0.0,0.0,0.0,0.0,0.0,0.0,0.0,0.0,0.0,0.0,0.0,0.0,0.0,0.0,0.0,0.0,0.0,0.0,0.0,0.0,0.0,0.0,0.0,0.0,0.0,0.0,0.0,0.0,0.0,0.0
25336000000,9265,25328000000,odom,base_footprint,2.0452972194096725e-07,1.489809057548144e-05,-0.0010073991456840577,-1.7351574398788579e-06,0.0015896503225718908,4.6196270996004746e-05,0.9999987354365732,1e-05,0.0,0.0,0.0,0.0,0.0,0.0,1e-05,0.0,0.0,0.0,0.0,0.0,0.0,1000000000000.0,0.0,0.0,0.0,0.0,0.0,0.0,1000000000000.0,0.0,0.0,0.0,0.0,0.0,0.0,1000000000000.0,0.0,0.0,0.0,0.0,0.0,0.0,0.001,6.407986646709055e-07,1.1827220676571047e-06,0.0,0.0,0.0,7.669522704627102e-06,0.0,0.0,0.0,0.0,0.0,0.0,0.0,0.0,0.0,0.0,0.0,0.0,0.0,0.0,0.0,0.0,0.0,0.0,0.0,0.0,0.0,0.0,0.0,0.0,0.0,0.0,0.0,0.0,0.0,0.0,0.0,0.0,0.0,0.0,0.0,0.0
25369000000,9266,25367000000,odom,base_footprint,2.114800077331752e-07,1.4917236082467975e-05,-0.0010073991456915968,-1.7352529830408534e-06,0.0015896503224924168,4.625639315333647e-05,0.999998735433794,1e-05,0.0,0.0,0.0,0.0,0.0,0.0,1e-05,0.0,0.0,0.0,0.0,0.0,0.0,1000000000000.0,0.0,0.0,0.0,0.0,0.0,0.0,1000000000000.0,0.0,0.0,0.0,0.0,0.0,0.0,1000000000000.0,0.0,0.0,0.0,0.0,0.0,0.0,0.001,6.408020818651214e-07,1.182732167340338e-06,0.0,0.0,0.0,7.6695854534004e-06,0.0,0.0,0.0,0.0,0.0,0.0,0.0,0.0,0.0,0.0,0.0,0.0,0.0,0.0,0.0,0.0,0.0,0.0,0.0,0.0,0.0,0.0,0.0,0.0,0.0,0.0,0.0,0.0,0.0,0.0,0.0,0.0,0.0,0.0,0.0,0.0
25399000000,9267,25399000000,odom,base_footprint,2.1843030580982747e-07,1.493638163068562e-05,-0.0010073991456991498,-1.735348526407174e-06,0.0015896503224129724,4.6316515439277816e-05,0.9999987354310111,1e-05,0.0,0.0,0.0,0.0,0.0,0.0,1e-05,0.0,0.0,0.0,0.0,0.0,0.0,1000000000000.0,0.0,0.0,0.0,0.0,0.0,0.0,1000000000000.0,0.0,0.0,0.0,0.0,0.0,0.0,1000000000000.0,0.0,0.0,0.0,0.0,0.0,0.0,0.001,6.408054978919189e-07,1.1827422636019624e-06,0.0,0.0,0.0,7.66964818081833e-06,0.0,0.0,0.0,0.0,0.0,0.0,0.0,0.0,0.0,0.0,0.0,0.0,0.0,0.0,0.0,0.0,0.0,0.0,0.0,0.0,0.0,0.0,0.0,0.0,0.0,0.0,0.0,0.0,0.0,0.0,0.0,0.0,0.0,0.0,0.0,0.0
25434000000,9268,25434000000,odom,base_footprint,2.2559123183819169e-07,1.4956107390181522e-05,-0.0010073991457069352,-1.7354469652403375e-06,0.0015896503223311303,4.637845974726753e-05,0.9999987354281402,1e-05,0.0,0.0,0.0,0.0,0.0,0.0,1e-05,0.0,0.0,0.0,0.0,0.0,0.0,1000000000000.0,0.0,0.0,0.0,0.0,0.0,0.0,1000000000000.0,0.0,0.0,0.0,0.0,0.0,0.0,1000000000000.0,0.0,0.0,0.0,0.0,0.0,0.0,0.001,6.408090181595869e-07,1.1827526679930198e-06,0.0,0.0,0.0,7.66971282273036e-06,0.0,0.0,0.0,0.0,0.0,0.0,0.0,0.0,0.0,0.0,0.0,0.0,0.0,0.0,0.0,0.0,0.0,0.0,0.0,0.0,0.0,0.0,0.0,0.0,0.0,0.0,0.0,0.0,0.0,0.0,0.0,0.0,0.0,0.0,0.0,0.0
25467000000,9269,25467000000,odom,base_footprint,2.3254155488011685e-07,1.4975253022172434e-05,-0.0010073991457144882,-1.7355425090319523e-06,0.00158965032225167,4.6438582294515535e-05,0.99999873542535,1e-05,0.0,0.0,0.0,0.0,0.0,0.0,1e-05,0.0,0.0,0.0,0.0,0.0,0.0,1000000000000.0,0.0,0.0,0.0,0.0,0.0,0.0,1000000000000.0,0.0,0.0,0.0,0.0,0.0,0.0,1000000000000.0,0.0,0.0,0.0,0.0,0.0,0.0,0.001,6.408124349630479e-07,1.1827627665910703e-06,0.0,0.0,0.0,7.669775564777457e-06,0.0,0.0,0.0,0.0,0.0,0.0,0.0,0.0,0.0,0.0,0.0,0.0,0.0,0.0,0.0,0.0,0.0,0.0,0.0,0.0,0.0,0.0,0.0,0.0,0.0,0.0,0.0,0.0,0.0,0.0,0.0,0.0,0.0,0.0,0.0,0.0
25500000000,9270,25499000000,odom,base_footprint,2.394918902186294e-07,1.4994398695434153e-05,-0.0010073991457220342,-1.7356380530175156e-06,0.001589650322172195,4.6498704970495596e-05,0.999998735422556,1e-05,0.0,0.0,0.0,0.0,0.0,0.0,1e-05,0.0,0.0,0.0,0.0,0.0,0.0,1000000000000.0,0.0,0.0,0.0,0.0,0.0,0.0,1000000000000.0,0.0,0.0,0.0,0.0,0.0,0.0,1000000000000.0,0.0,0.0,0.0,0.0,0.0,0.0,0.001,6.408158520826722e-07,1.1827728661278945e-06,0.0,0.0,0.0,7.669838312635298e-06,0.0,0.0,0.0,0.0,0.0,0.0,0.0,0.0,0.0,0.0,0.0,0.0,0.0,0.0,0.0,0.0,0.0,0.0,0.0,0.0,0.0,0.0,0.0,0.0,0.0,0.0,0.0,0.0,0.0,0.0,0.0,0.0,0.0,0.0,0.0,0.0
25535000000,9271,25530000000,odom,base_footprint,2.4665285462428105e-07,1.5014124583722344e-05,-0.0010073991457298197,-1.7357364924865167e-06,0.0015896503220903257,4.656064968021687e-05,0.9999987354196738,1e-05,0.0,0.0,0.0,0.0,0.0,0.0,1e-05,0.0,0.0,0.0,0.0,0.0,0.0,1000000000000.0,0.0,0.0,0.0,0.0,0.0,0.0,1000000000000.0,0.0,0.0,0.0,0.0,0.0,0.0,1000000000000.0,0.0,0.0,0.0,0.0,0.0,0.0,0.001,6.40819371950995e-07,1.1827832692213605e-06,0.0,0.0,0.0,7.66990294663025e-06,0.0,0.0,0.0,0.0,0.0,0.0,0.0,0.0,0.0,0.0,0.0,0.0,0.0,0.0,0.0,0.0,0.0,0.0,0.0,0.0,0.0,0.0,0.0,0.0,0.0,0.0,0.0,0.0,0.0,0.0,0.0,0.0,0.0,0.0,0.0,0.0
25567000000,9272,25566000000,odom,base_footprint,2.536032148985762e-07,1.5033270340668591e-05,-0.0010073991457373796,-1.7358320368959374e-06,0.0015896503220108771,4.662077261722981e-05,0.9999987354168726,1e-05,0.0,0.0,0.0,0.0,0.0,0.0,1e-05,0.0,0.0,0.0,0.0,0.0,0.0,1000000000000.0,0.0,0.0,0.0,0.0,0.0,0.0,1000000000000.0,0.0,0.0,0.0,0.0,0.0,0.0,1000000000000.0,0.0,0.0,0.0,0.0,0.0,0.0,0.001,6.408227874804112e-07,1.1827933640195218e-06,0.0,0.0,0.0,7.669965665161208e-06,0.0,0.0,0.0,0.0,0.0,0.0,0.0,0.0,0.0,0.0,0.0,0.0,0.0,0.0,0.0,0.0,0.0,0.0,0.0,0.0,0.0,0.0,0.0,0.0,0.0,0.0,0.0,0.0,0.0,0.0,0.0,0.0,0.0,0.0,0.0,0.0
25600000000,9273,25599000000,odom,base_footprint,2.6055358747032603e-07,1.5052416138889255e-05,-0.0010073991457449256,-1.7359275814932948e-06,0.0015896503219313867,4.668089568298588e-05,0.9999987354140676,1e-05,0.0,0.0,0.0,0.0,0.0,0.0,1e-05,0.0,0.0,0.0,0.0,0.0,0.0,1000000000000.0,0.0,0.0,0.0,0.0,0.0,0.0,1000000000000.0,0.0,0.0,0.0,0.0,0.0,0.0,1000000000000.0,0.0,0.0,0.0,0.0,0.0,0.0,0.001,6.408262042174166e-07,1.1828034623314647e-06,0.0,0.0,0.0,7.670028405464917e-06,0.0,0.0,0.0,0.0,0.0,0.0,0.0,0.0,0.0,0.0,0.0,0.0,0.0,0.0,0.0,0.0,0.0,0.0,0.0,0.0,0.0,0.0,0.0,0.0,0.0,0.0,0.0,0.0,0.0,0.0,0.0,0.0,0.0,0.0,0.0,0.0
25637000000,9274,25631000000,odom,base_footprint,2.6771459026280614e-07,1.507214215600606e-05,-0.0010073991457527041,-1.736026021610906e-06,0.00158965032184947,4.67428407945509e-05,0.999998735411174,1e-05,0.0,0.0,0.0,0.0,0.0,0.0,1e-05,0.0,0.0,0.0,0.0,0.0,0.0,1000000000000.0,0.0,0.0,0.0,0.0,0.0,0.0,1000000000000.0,0.0,0.0,0.0,0.0,0.0,0.0,1000000000000.0,0.0,0.0,0.0,0.0,0.0,0.0,0.001,6.408297251693524e-07,1.182813868790429e-06,0.0,0.0,0.0,7.670093060024884e-06,0.0,0.0,0.0,0.0,0.0,0.0,0.0,0.0,0.0,0.0,0.0,0.0,0.0,0.0,0.0,0.0,0.0,0.0,0.0,0.0,0.0,0.0,0.0,0.0,0.0,0.0,0.0,0.0,0.0,0.0,0.0,0.0,0.0,0.0,0.0,0.0
25665000000,9275,25667000000,odom,base_footprint,2.7466498779202264e-07,1.5091288037983122e-05,-0.0010073991457602606,-1.7361215666117624e-06,0.0015896503217700036,4.680296412156153e-05,0.9999987354083619,1e-05,0.0,0.0,0.0,0.0,0.0,0.0,1e-05,0.0,0.0,0.0,0.0,0.0,0.0,1000000000000.0,0.0,0.0,0.0,0.0,0.0,0.0,1000000000000.0,0.0,0.0,0.0,0.0,0.0,0.0,1000000000000.0,0.0,0.0,0.0,0.0,0.0,0.0,0.001,6.408331408879373e-07,1.1828239641888333e-06,0.0,0.0,0.0,7.670155782234134e-06,0.0,0.0,0.0,0.0,0.0,0.0,0.0,0.0,0.0,0.0,0.0,0.0,0.0,0.0,0.0,0.0,0.0,0.0,0.0,0.0,0.0,0.0,0.0,0.0,0.0,0.0,0.0,0.0,0.0,0.0,0.0,0.0,0.0,0.0,0.0,0.0
25701000000,9276,25700000000,odom,base_footprint,2.8161539762129595e-07,1.5110433961242473e-05,-0.0010073991457678101,-1.7362171118351003e-06,0.0015896503216904845,4.68630875773398e-05,0.9999987354055462,1e-05,0.0,0.0,0.0,0.0,0.0,0.0,1e-05,0.0,0.0,0.0,0.0,0.0,0.0,1000000000000.0,0.0,0.0,0.0,0.0,0.0,0.0,1000000000000.0,0.0,0.0,0.0,0.0,0.0,0.0,1000000000000.0,0.0,0.0,0.0,0.0,0.0,0.0,0.001,6.408365582269413e-07,1.1828340642656082e-06,0.0,0.0,0.0,7.670218533576647e-06,0.0,0.0,0.0,0.0,0.0,0.0,0.0,0.0,0.0,0.0,0.0,0.0,0.0,0.0,0.0,0.0,0.0,0.0,0.0,0.0,0.0,0.0,0.0,0.0,0.0,0.0,0.0,0.0,0.0,0.0,0.0,0.0,0.0,0.0,0.0,0.0
25734000000,9277,25733000000,odom,base_footprint,2.887764387841246e-07,1.5130160107134752e-05,-0.0010073991457755886,-1.736315552595543e-06,0.0015896503216085934,4.6925033090584576e-05,0.9999987354026413,1e-05,0.0,0.0,0.0,0.0,0.0,0.0,1e-05,0.0,0.0,0.0,0.0,0.0,0.0,1000000000000.0,0.0,0.0,0.0,0.0,0.0,0.0,1000000000000.0,0.0,0.0,0.0,0.0,0.0,0.0,1000000000000.0,0.0,0.0,0.0,0.0,0.0,0.0,0.001,6.408400784949944e-07,1.1828444686148507e-06,0.0,0.0,0.0,7.670283175128323e-06,0.0,0.0,0.0,0.0,0.0,0.0,0.0,0.0,0.0,0.0,0.0,0.0,0.0,0.0,0.0,0.0,0.0,0.0,0.0,0.0,0.0,0.0,0.0,0.0,0.0,0.0,0.0,0.0,0.0,0.0,0.0,0.0,0.0,0.0,0.0,0.0
25768000000,9278,25761000000,odom,base_footprint,2.9572687356652777e-07,1.5149306114135117e-05,-0.001007399145783145,-1.7364110982162685e-06,0.0015896503215291,4.6985156807569864e-05,0.999998735399818,1e-05,0.0,0.0,0.0,0.0,0.0,0.0,1e-05,0.0,0.0,0.0,0.0,0.0,0.0,1000000000000.0,0.0,0.0,0.0,0.0,0.0,0.0,1000000000000.0,0.0,0.0,0.0,0.0,0.0,0.0,1000000000000.0,0.0,0.0,0.0,0.0,0.0,0.0,0.001,6.408434962139223e-07,1.1828545700013556e-06,0.0,0.0,0.0,7.670345934293145e-06,0.0,0.0,0.0,0.0,0.0,0.0,0.0,0.0,0.0,0.0,0.0,0.0,0.0,0.0,0.0,0.0,0.0,0.0,0.0,0.0,0.0,0.0,0.0,0.0,0.0,0.0,0.0,0.0,0.0,0.0,0.0,0.0,0.0,0.0,0.0,0.0
25801000000,9279,25800000000,odom,base_footprint,3.0267732063684466e-07,1.5168452162386115e-05,-0.0010073991457907015,-1.7365066440559702e-06,0.0015896503214495883,4.704528065322513e-05,0.9999987353969912,1e-05,0.0,0.0,0.0,0.0,0.0,0.0,1e-05,0.0,0.0,0.0,0.0,0.0,0.0,1000000000000.0,0.0,0.0,0.0,0.0,0.0,0.0,1000000000000.0,0.0,0.0,0.0,0.0,0.0,0.0,1000000000000.0,0.0,0.0,0.0,0.0,0.0,0.0,0.001,6.408469117734323e-07,1.182864664825802e-06,0.0,0.0,0.0,7.670408653247766e-06,0.0,0.0,0.0,0.0,0.0,0.0,0.0,0.0,0.0,0.0,0.0,0.0,0.0,0.0,0.0,0.0,0.0,0.0,0.0,0.0,0.0,0.0,0.0,0.0,0.0,0.0,0.0,0.0,0.0,0.0,0.0,0.0,0.0,0.0,0.0,0.0
25834000000,9280,25830000000,odom,base_footprint,3.098384001674198e-07,1.5188178437045444e-05,-0.001007399145798487,-1.7366050854406146e-06,0.0015896503213676766,4.710722656812355e-05,0.9999987353940751,1e-05,0.0,0.0,0.0,0.0,0.0,0.0,1e-05,0.0,0.0,0.0,0.0,0.0,0.0,1000000000000.0,0.0,0.0,0.0,0.0,0.0,0.0,1000000000000.0,0.0,0.0,0.0,0.0,0.0,0.0,1000000000000.0,0.0,0.0,0.0,0.0,0.0,0.0,0.001,6.408504323353851e-07,1.1828750700487795e-06,0.0,0.0,0.0,7.670473300263346e-06,0.0,0.0,0.0,0.0,0.0,0.0,0.0,0.0,0.0,0.0,0.0,0.0,0.0,0.0,0.0,0.0,0.0,0.0,0.0,0.0,0.0,0.0,0.0,0.0,0.0,0.0,0.0,0.0,0.0,0.0,0.0,0.0,0.0,0.0,0.0,0.0
25860000000,9281,25860000000,odom,base_footprint,3.167888721917339e-07,1.5207324569031667e-05,-0.00100739914580604,-1.736700631688299e-06,0.0015896503212881445,4.7167350674968004e-05,0.9999987353912408,1e-05,0.0,0.0,0.0,0.0,0.0,0.0,1e-05,0.0,0.0,0.0,0.0,0.0,0.0,1000000000000.0,0.0,0.0,0.0,0.0,0.0,0.0,1000000000000.0,0.0,0.0,0.0,0.0,0.0,0.0,1000000000000.0,0.0,0.0,0.0,0.0,0.0,0.0,0.001,6.408538484419979e-07,1.1828851664795595e-06,0.0,0.0,0.0,7.670536028992327e-06,0.0,0.0,0.0,0.0,0.0,0.0,0.0,0.0,0.0,0.0,0.0,0.0,0.0,0.0,0.0,0.0,0.0,0.0,0.0,0.0,0.0,0.0,0.0,0.0,0.0,0.0,0.0,0.0,0.0,0.0,0.0,0.0,0.0,0.0,0.0,0.0
25898000000,9282,25895000000,odom,base_footprint,3.237393564935534e-07,1.5226470742237948e-05,-0.0010073991458135964,-1.7367961781511782e-06,0.0015896503212086154,4.722747491038805e-05,0.9999987353884031,1e-05,0.0,0.0,0.0,0.0,0.0,0.0,1e-05,0.0,0.0,0.0,0.0,0.0,0.0,1000000000000.0,0.0,0.0,0.0,0.0,0.0,0.0,1000000000000.0,0.0,0.0,0.0,0.0,0.0,0.0,1000000000000.0,0.0,0.0,0.0,0.0,0.0,0.0,0.001,6.408572658609224e-07,1.1828952669257502e-06,0.0,0.0,0.0,7.670598782485202e-06,0.0,0.0,0.0,0.0,0.0,0.0,0.0,0.0,0.0,0.0,0.0,0.0,0.0,0.0,0.0,0.0,0.0,0.0,0.0,0.0,0.0,0.0,0.0,0.0,0.0,0.0,0.0,0.0,0.0,0.0,0.0,0.0,0.0,0.0,0.0,0.0
25935000000,9283,25933000000,odom,base_footprint,3.3090047440488546e-07,1.524619714569773e-05,-0.0010073991458213818,-1.7368946201527042e-06,0.001589650321126683,4.7289421227043196e-05,0.9999987353854757,1e-05,0.0,0.0,0.0,0.0,0.0,0.0,1e-05,0.0,0.0,0.0,0.0,0.0,0.0,1000000000000.0,0.0,0.0,0.0,0.0,0.0,0.0,1000000000000.0,0.0,0.0,0.0,0.0,0.0,0.0,1000000000000.0,0.0,0.0,0.0,0.0,0.0,0.0,0.001,6.408607862733845e-07,1.1829056717684995e-06,0.0,0.0,0.0,7.670663427172434e-06,0.0,0.0,0.0,0.0,0.0,0.0,0.0,0.0,0.0,0.0,0.0,0.0,0.0,0.0,0.0,0.0,0.0,0.0,0.0,0.0,0.0,0.0,0.0,0.0,0.0,0.0,0.0,0.0,0.0,0.0,0.0,0.0,0.0,0.0,0.0,0.0
25964000000,9284,25964000000,odom,base_footprint,3.378509836754473e-07,1.5265343402687116e-05,-0.0010073991458289314,-1.7369901670309163e-06,0.0015896503210471296,4.734954572380025e-05,0.9999987353826306,1e-05,0.0,0.0,0.0,0.0,0.0,0.0,1e-05,0.0,0.0,0.0,0.0,0.0,0.0,1000000000000.0,0.0,0.0,0.0,0.0,0.0,0.0,1000000000000.0,0.0,0.0,0.0,0.0,0.0,0.0,1000000000000.0,0.0,0.0,0.0,0.0,0.0,0.0,0.001,6.408642016656899e-07,1.182915766087526e-06,0.0,0.0,0.0,7.67072614285638e-06,0.0,0.0,0.0,0.0,0.0,0.0,0.0,0.0,0.0,0.0,0.0,0.0,0.0,0.0,0.0,0.0,0.0,0.0,0.0,0.0,0.0,0.0,0.0,0.0,0.0,0.0,0.0,0.0,0.0,0.0,0.0,0.0,0.0,0.0,0.0,0.0
26002000000,9285,25999000000,odom,base_footprint,3.4480150522524927e-07,1.5284489700903354e-05,-0.0010073991458364878,-1.737085714100438e-06,0.0015896503209675995,4.740967034915375e-05,0.9999987353797817,1e-05,0.0,0.0,0.0,0.0,0.0,0.0,1e-05,0.0,0.0,0.0,0.0,0.0,0.0,1000000000000.0,0.0,0.0,0.0,0.0,0.0,0.0,1000000000000.0,0.0,0.0,0.0,0.0,0.0,0.0,1000000000000.0,0.0,0.0,0.0,0.0,0.0,0.0,0.001,6.408676188218631e-07,1.1829258656943968e-06,0.0,0.0,0.0,7.670788891195953e-06,0.0,0.0,0.0,0.0,0.0,0.0,0.0,0.0,0.0,0.0,0.0,0.0,0.0,0.0,0.0,0.0,0.0,0.0,0.0,0.0,0.0,0.0,0.0,0.0,0.0,0.0,0.0,0.0,0.0,0.0,0.0,0.0,0.0,0.0,0.0,0.0
26034000000,9286,26029000000,odom,base_footprint,3.51962661499991e-07,1.5304216233109534e-05,-0.0010073991458442767,-1.737184156762604e-06,0.0015896503208856602,4.7471617067398975e-05,0.9999987353768429,1e-05,0.0,0.0,0.0,0.0,0.0,0.0,1e-05,0.0,0.0,0.0,0.0,0.0,0.0,1000000000000.0,0.0,0.0,0.0,0.0,0.0,0.0,1000000000000.0,0.0,0.0,0.0,0.0,0.0,0.0,1000000000000.0,0.0,0.0,0.0,0.0,0.0,0.0,0.001,6.408711386756582e-07,1.182936268741653e-06,0.0,0.0,0.0,7.670853525076716e-06,0.0,0.0,0.0,0.0,0.0,0.0,0.0,0.0,0.0,0.0,0.0,0.0,0.0,0.0,0.0,0.0,0.0,0.0,0.0,0.0,0.0,0.0,0.0,0.0,0.0,0.0,0.0,0.0,0.0,0.0,0.0,0.0,0.0,0.0,0.0,0.0
26065000000,9287,26066000000,odom,base_footprint,3.5891320799945337e-07,1.5323362615055816e-05,-0.0010073991458518367,-1.737279704238535e-06,0.0015896503208061245,4.753174195392574e-05,0.9999987353739869,1e-05,0.0,0.0,0.0,0.0,0.0,0.0,1e-05,0.0,0.0,0.0,0.0,0.0,0.0,1000000000000.0,0.0,0.0,0.0,0.0,0.0,0.0,1000000000000.0,0.0,0.0,0.0,0.0,0.0,0.0,1000000000000.0,0.0,0.0,0.0,0.0,0.0,0.0,0.001,6.408745558937229e-07,1.182946368603384e-06,0.0,0.0,0.0,7.670916274901262e-06,0.0,0.0,0.0,0.0,0.0,0.0,0.0,0.0,0.0,0.0,0.0,0.0,0.0,0.0,0.0,0.0,0.0,0.0,0.0,0.0,0.0,0.0,0.0,0.0,0.0,0.0,0.0,0.0,0.0,0.0,0.0,0.0,0.0,0.0,0.0,0.0
26099000000,9288,26099000000,odom,base_footprint,3.65863766792901e-07,1.5342509038260135e-05,-0.0010073991458593862,-1.7373752519361378e-06,0.0015896503207265514,4.759186696914529e-05,0.9999987353711273,1e-05,0.0,0.0,0.0,0.0,0.0,0.0,1e-05,0.0,0.0,0.0,0.0,0.0,0.0,1000000000000.0,0.0,0.0,0.0,0.0,0.0,0.0,1000000000000.0,0.0,0.0,0.0,0.0,0.0,0.0,1000000000000.0,0.0,0.0,0.0,0.0,0.0,0.0,0.001,6.408779730555711e-07,1.1829564682020364e-06,0.0,0.0,0.0,7.670979023120202e-06,0.0,0.0,0.0,0.0,0.0,0.0,0.0,0.0,0.0,0.0,0.0,0.0,0.0,0.0,0.0,0.0,0.0,0.0,0.0,0.0,0.0,0.0,0.0,0.0,0.0,0.0,0.0,0.0,0.0,0.0,0.0,0.0,0.0,0.0,0.0,0.0
26133000000,9289,26133000000,odom,base_footprint,3.7302496144406283e-07,1.5362235699265243e-05,-0.0010073991458671716,-1.7374736952273244e-06,0.0015896503206445673,4.765381408914261e-05,0.999998735368177,1e-05,0.0,0.0,0.0,0.0,0.0,0.0,1e-05,0.0,0.0,0.0,0.0,0.0,0.0,1000000000000.0,0.0,0.0,0.0,0.0,0.0,0.0,1000000000000.0,0.0,0.0,0.0,0.0,0.0,0.0,1000000000000.0,0.0,0.0,0.0,0.0,0.0,0.0,0.001,6.408814926316024e-07,1.1829668704881212e-06,0.0,0.0,0.0,7.671043652189285e-06,0.0,0.0,0.0,0.0,0.0,0.0,0.0,0.0,0.0,0.0,0.0,0.0,0.0,0.0,0.0,0.0,0.0,0.0,0.0,0.0,0.0,0.0,0.0,0.0,0.0,0.0,0.0,0.0,0.0,0.0,0.0,0.0,0.0,0.0,0.0,0.0
26169000000,9290,26165000000,odom,base_footprint,3.799755452088549e-07,1.5381382206266105e-05,-0.001007399145874728,-1.7375692433305335e-06,0.00158965032056501,4.771393936574064e-05,0.9999987353653099,1e-05,0.0,0.0,0.0,0.0,0.0,0.0,1e-05,0.0,0.0,0.0,0.0,0.0,0.0,1000000000000.0,0.0,0.0,0.0,0.0,0.0,0.0,1000000000000.0,0.0,0.0,0.0,0.0,0.0,0.0,1000000000000.0,0.0,0.0,0.0,0.0,0.0,0.0,0.001,6.408849103357595e-07,1.1829769717872573e-06,0.0,0.0,0.0,7.671106411004354e-06,0.0,0.0,0.0,0.0,0.0,0.0,0.0,0.0,0.0,0.0,0.0,0.0,0.0,0.0,0.0,0.0,0.0,0.0,0.0,0.0,0.0,0.0,0.0,0.0,0.0,0.0,0.0,0.0,0.0,0.0,0.0,0.0,0.0,0.0,0.0,0.0
26205000000,9291,26196000000,odom,base_footprint,3.8692614126589753e-07,1.540052875452748e-05,-0.0010073991458822845,-1.7376647916330961e-06,0.0015896503204854322,4.7774064771038956e-05,0.9999987353624393,1e-05,0.0,0.0,0.0,0.0,0.0,0.0,1e-05,0.0,0.0,0.0,0.0,0.0,0.0,1000000000000.0,0.0,0.0,0.0,0.0,0.0,0.0,1000000000000.0,0.0,0.0,0.0,0.0,0.0,0.0,1000000000000.0,0.0,0.0,0.0,0.0,0.0,0.0,0.001,6.408883273808604e-07,1.1829870710529224e-06,0.0,0.0,0.0,7.6711691572772e-06,0.0,0.0,0.0,0.0,0.0,0.0,0.0,0.0,0.0,0.0,0.0,0.0,0.0,0.0,0.0,0.0,0.0,0.0,0.0,0.0,0.0,0.0,0.0,0.0,0.0,0.0,0.0,0.0,0.0,0.0,0.0,0.0,0.0,0.0,0.0,0.0
26235000000,9292,26233000000,odom,base_footprint,3.940873742969489e-07,1.5420255544345316e-05,-0.001007399145890077,-1.7377632355573429e-06,0.001589650320403474,4.7836012292830986e-05,0.9999987353594779,1e-05,0.0,0.0,0.0,0.0,0.0,0.0,1e-05,0.0,0.0,0.0,0.0,0.0,0.0,1000000000000.0,0.0,0.0,0.0,0.0,0.0,0.0,1000000000000.0,0.0,0.0,0.0,0.0,0.0,0.0,1000000000000.0,0.0,0.0,0.0,0.0,0.0,0.0,0.001,6.408918475151579e-07,1.1829974750808097e-06,0.0,0.0,0.0,7.671233796810077e-06,0.0,0.0,0.0,0.0,0.0,0.0,0.0,0.0,0.0,0.0,0.0,0.0,0.0,0.0,0.0,0.0,0.0,0.0,0.0,0.0,0.0,0.0,0.0,0.0,0.0,0.0,0.0,0.0,0.0,0.0,0.0,0.0,0.0,0.0,0.0,0.0
26271000000,9293,26264000000,odom,base_footprint,4.0103799530712136e-07,1.5439402176348735e-05,-0.0010073991458976264,-1.7378587842678724e-06,0.0015896503203238904,4.789613795933958e-05,0.9999987353565998,1e-05,0.0,0.0,0.0,0.0,0.0,0.0,1e-05,0.0,0.0,0.0,0.0,0.0,0.0,1000000000000.0,0.0,0.0,0.0,0.0,0.0,0.0,1000000000000.0,0.0,0.0,0.0,0.0,0.0,0.0,1000000000000.0,0.0,0.0,0.0,0.0,0.0,0.0,0.001,6.40895263618871e-07,1.1830075714499174e-06,0.0,0.0,0.0,7.671296525310874e-06,0.0,0.0,0.0,0.0,0.0,0.0,0.0,0.0,0.0,0.0,0.0,0.0,0.0,0.0,0.0,0.0,0.0,0.0,0.0,0.0,0.0,0.0,0.0,0.0,0.0,0.0,0.0,0.0,0.0,0.0,0.0,0.0,0.0,0.0,0.0,0.0
26303000000,9294,26299000000,odom,base_footprint,4.0798862861041174e-07,1.5458548849607506e-05,-0.001007399145905176,-1.7379543332006822e-06,0.0015896503202442636,4.795626375453275e-05,0.9999987353537182,1e-05,0.0,0.0,0.0,0.0,0.0,0.0,1e-05,0.0,0.0,0.0,0.0,0.0,0.0,1000000000000.0,0.0,0.0,0.0,0.0,0.0,0.0,1000000000000.0,0.0,0.0,0.0,0.0,0.0,0.0,1000000000000.0,0.0,0.0,0.0,0.0,0.0,0.0,0.001,6.408986812907185e-07,1.1830176725614254e-06,0.0,0.0,0.0,7.671359283001833e-06,0.0,0.0,0.0,0.0,0.0,0.0,0.0,0.0,0.0,0.0,0.0,0.0,0.0,0.0,0.0,0.0,0.0,0.0,0.0,0.0,0.0,0.0,0.0,0.0,0.0,0.0,0.0,0.0,0.0,0.0,0.0,0.0,0.0,0.0,0.0,0.0
26335000000,9295,26333000000,odom,base_footprint,4.1514990001875057e-07,1.5478275768229426e-05,-0.0010073991459129718,-1.738052777753175e-06,0.0015896503201623018,4.801821167809276e-05,0.9999987353507455,1e-05,0.0,0.0,0.0,0.0,0.0,0.0,1e-05,0.0,0.0,0.0,0.0,0.0,0.0,1000000000000.0,0.0,0.0,0.0,0.0,0.0,0.0,1000000000000.0,0.0,0.0,0.0,0.0,0.0,0.0,1000000000000.0,0.0,0.0,0.0,0.0,0.0,0.0,0.001,6.409022010153506e-07,1.18302807531939e-06,0.0,0.0,0.0,7.671423914904466e-06,0.0,0.0,0.0,0.0,0.0,0.0,0.0,0.0,0.0,0.0,0.0,0.0,0.0,0.0,0.0,0.0,0.0,0.0,0.0,0.0,0.0,0.0,0.0,0.0,0.0,0.0,0.0,0.0,0.0,0.0,0.0,0.0,0.0,0.0,0.0,0.0
26361000000,9296,26366000000,odom,base_footprint,4.22100558270834e-07,1.549742252522043e-05,-0.0010073991459205248,-1.7381483271098962e-06,0.0015896503200826795,4.8078337734465993e-05,0.9999987353478563,1e-05,0.0,0.0,0.0,0.0,0.0,0.0,1e-05,0.0,0.0,0.0,0.0,0.0,0.0,1000000000000.0,0.0,0.0,0.0,0.0,0.0,0.0,1000000000000.0,0.0,0.0,0.0,0.0,0.0,0.0,1000000000000.0,0.0,0.0,0.0,0.0,0.0,0.0,0.001,6.409056175851127e-07,1.1830381731860584e-06,0.0,0.0,0.0,7.671486652634352e-06,0.0,0.0,0.0,0.0,0.0,0.0,0.0,0.0,0.0,0.0,0.0,0.0,0.0,0.0,0.0,0.0,0.0,0.0,0.0,0.0,0.0,0.0,0.0,0.0,0.0,0.0,0.0,0.0,0.0,0.0,0.0,0.0,0.0,0.0,0.0,0.0
26396000000,9297,26397000000,odom,base_footprint,4.2905122881516794e-07,1.551656932347182e-05,-0.0010073991459280882,-1.7382438766408296e-06,0.0015896503200030895,4.8138463919539115e-05,0.999998735344964,1e-05,0.0,0.0,0.0,0.0,0.0,0.0,1e-05,0.0,0.0,0.0,0.0,0.0,0.0,1000000000000.0,0.0,0.0,0.0,0.0,0.0,0.0,1000000000000.0,0.0,0.0,0.0,0.0,0.0,0.0,1000000000000.0,0.0,0.0,0.0,0.0,0.0,0.0,0.001,6.409090341038026e-07,1.183048270925243e-06,0.0,0.0,0.0,7.671549389469839e-06,0.0,0.0,0.0,0.0,0.0,0.0,0.0,0.0,0.0,0.0,0.0,0.0,0.0,0.0,0.0,0.0,0.0,0.0,0.0,0.0,0.0,0.0,0.0,0.0,0.0,0.0,0.0,0.0,0.0,0.0,0.0,0.0,0.0,0.0,0.0,0.0
26434000000,9298,26433000000,odom,base_footprint,4.3621253858865117e-07,1.5536296370857097e-05,-0.0010073991459358805,-1.7383423218307943e-06,0.0015896503199210816,4.820041224474154e-05,0.9999987353419797,1e-05,0.0,0.0,0.0,0.0,0.0,0.0,1e-05,0.0,0.0,0.0,0.0,0.0,0.0,1000000000000.0,0.0,0.0,0.0,0.0,0.0,0.0,1000000000000.0,0.0,0.0,0.0,0.0,0.0,0.0,1000000000000.0,0.0,0.0,0.0,0.0,0.0,0.0,0.001,6.409125553365075e-07,1.1830586781058744e-06,0.0,0.0,0.0,7.671614048663789e-06,0.0,0.0,0.0,0.0,0.0,0.0,0.0,0.0,0.0,0.0,0.0,0.0,0.0,0.0,0.0,0.0,0.0,0.0,0.0,0.0,0.0,0.0,0.0,0.0,0.0,0.0,0.0,0.0,0.0,0.0,0.0,0.0,0.0,0.0,0.0,0.0
26465000000,9299,26467000000,odom,base_footprint,4.431632340904518e-07,1.5555443252862047e-05,-0.0010073991459434335,-1.7384378717810252e-06,0.0015896503198414506,4.826053869106051e-05,0.9999987353390798,1e-05,0.0,0.0,0.0,0.0,0.0,0.0,1e-05,0.0,0.0,0.0,0.0,0.0,0.0,1000000000000.0,0.0,0.0,0.0,0.0,0.0,0.0,1000000000000.0,0.0,0.0,0.0,0.0,0.0,0.0,1000000000000.0,0.0,0.0,0.0,0.0,0.0,0.0,0.001,6.409159721599608e-07,1.1830687767225737e-06,0.0,0.0,0.0,7.671676790954129e-06,0.0,0.0,0.0,0.0,0.0,0.0,0.0,0.0,0.0,0.0,0.0,0.0,0.0,0.0,0.0,0.0,0.0,0.0,0.0,0.0,0.0,0.0,0.0,0.0,0.0,0.0,0.0,0.0,0.0,0.0,0.0,0.0,0.0,0.0,0.0,0.0
26500000000,9300,26500000000,odom,base_footprint,4.501139418801661e-07,1.5574590176117094e-05,-0.0010073991459510073,-1.7385334219562426e-06,0.0015896503197618636,4.8320665266047815e-05,0.9999987353361762,1e-05,0.0,0.0,0.0,0.0,0.0,0.0,1e-05,0.0,0.0,0.0,0.0,0.0,0.0,1000000000000.0,0.0,0.0,0.0,0.0,0.0,0.0,1000000000000.0,0.0,0.0,0.0,0.0,0.0,0.0,1000000000000.0,0.0,0.0,0.0,0.0,0.0,0.0,0.001,6.409193898615625e-07,1.1830788779801877e-06,0.0,0.0,0.0,7.671739549626372e-06,0.0,0.0,0.0,0.0,0.0,0.0,0.0,0.0,0.0,0.0,0.0,0.0,0.0,0.0,0.0,0.0,0.0,0.0,0.0,0.0,0.0,0.0,0.0,0.0,0.0,0.0,0.0,0.0,0.0,0.0,0.0,0.0,0.0,0.0,0.0,0.0
26534000000,9301,26533000000,odom,base_footprint,4.572752900404778e-07,1.5594317352325988e-05,-0.0010073991459587893,-1.738631867778305e-06,0.0015896503196798145,4.838261399307856e-05,0.999998735333181,1e-05,0.0,0.0,0.0,0.0,0.0,0.0,1e-05,0.0,0.0,0.0,0.0,0.0,0.0,1000000000000.0,0.0,0.0,0.0,0.0,0.0,0.0,1000000000000.0,0.0,0.0,0.0,0.0,0.0,0.0,1000000000000.0,0.0,0.0,0.0,0.0,0.0,0.0,0.001,6.409229099879053e-07,1.183089281918548e-06,0.0,0.0,0.0,7.671804188729164e-06,0.0,0.0,0.0,0.0,0.0,0.0,0.0,0.0,0.0,0.0,0.0,0.0,0.0,0.0,0.0,0.0,0.0,0.0,0.0,0.0,0.0,0.0,0.0,0.0,0.0,0.0,0.0,0.0,0.0,0.0,0.0,0.0,0.0,0.0,0.0,0.0
26568000000,9302,26566000000,odom,base_footprint,4.642260227867914e-07,1.5613464359343466e-05,-0.0010073991459663527,-1.738727418359759e-06,0.0015896503196002085,4.8442740829339106e-05,0.9999987353302698,1e-05,0.0,0.0,0.0,0.0,0.0,0.0,1e-05,0.0,0.0,0.0,0.0,0.0,0.0,1000000000000.0,0.0,0.0,0.0,0.0,0.0,0.0,1000000000000.0,0.0,0.0,0.0,0.0,0.0,0.0,1000000000000.0,0.0,0.0,0.0,0.0,0.0,0.0,0.001,6.409263254692794e-07,1.1830993765593664e-06,0.0,0.0,0.0,7.671866906461782e-06,0.0,0.0,0.0,0.0,0.0,0.0,0.0,0.0,0.0,0.0,0.0,0.0,0.0,0.0,0.0,0.0,0.0,0.0,0.0,0.0,0.0,0.0,0.0,0.0,0.0,0.0,0.0,0.0,0.0,0.0,0.0,0.0,0.0,0.0,0.0,0.0
26599000000,9303,26599000000,odom,base_footprint,4.711767678253556e-07,1.5632611407604882e-05,-0.0010073991459739091,-1.738822969134805e-06,0.0015896503195205595,4.8502867794248824e-05,0.9999987353273553,1e-05,0.0,0.0,0.0,0.0,0.0,0.0,1e-05,0.0,0.0,0.0,0.0,0.0,0.0,1000000000000.0,0.0,0.0,0.0,0.0,0.0,0.0,1000000000000.0,0.0,0.0,0.0,0.0,0.0,0.0,1000000000000.0,0.0,0.0,0.0,0.0,0.0,0.0,0.001,6.409297424374274e-07,1.183109475468881e-06,0.0,0.0,0.0,7.67192965069688e-06,0.0,0.0,0.0,0.0,0.0,0.0,0.0,0.0,0.0,0.0,0.0,0.0,0.0,0.0,0.0,0.0,0.0,0.0,0.0,0.0,0.0,0.0,0.0,0.0,0.0,0.0,0.0,0.0,0.0,0.0,0.0,0.0,0.0,0.0,0.0,0.0
26634000000,9304,26632000000,odom,base_footprint,4.783381543560158e-07,1.5652338712592633e-05,-0.001007399145981705,-1.7389214156102003e-06,0.0015896503194385181,4.856481692296988e-05,0.9999987353243487,1e-05,0.0,0.0,0.0,0.0,0.0,0.0,1e-05,0.0,0.0,0.0,0.0,0.0,0.0,1000000000000.0,0.0,0.0,0.0,0.0,0.0,0.0,1000000000000.0,0.0,0.0,0.0,0.0,0.0,0.0,1000000000000.0,0.0,0.0,0.0,0.0,0.0,0.0,0.001,6.409332638176802e-07,1.1831198832054512e-06,0.0,0.0,0.0,7.671994313521308e-06,0.0,0.0,0.0,0.0,0.0,0.0,0.0,0.0,0.0,0.0,0.0,0.0,0.0,0.0,0.0,0.0,0.0,0.0,0.0,0.0,0.0,0.0,0.0,0.0,0.0,0.0,0.0,0.0,0.0,0.0,0.0,0.0,0.0,0.0,0.0,0.0
26667000000,9305,26666000000,odom,base_footprint,4.85288924350312e-07,1.5671485844616328e-05,-0.0010073991459892719,-1.7390169667912756e-06,0.0015896503193588937,4.8624944149152354e-05,0.9999987353214268,1e-05,0.0,0.0,0.0,0.0,0.0,0.0,1e-05,0.0,0.0,0.0,0.0,0.0,0.0,1000000000000.0,0.0,0.0,0.0,0.0,0.0,0.0,1000000000000.0,0.0,0.0,0.0,0.0,0.0,0.0,1000000000000.0,0.0,0.0,0.0,0.0,0.0,0.0,0.001,6.409366804944857e-07,1.1831299813812368e-06,0.0,0.0,0.0,7.672057052930795e-06,0.0,0.0,0.0,0.0,0.0,0.0,0.0,0.0,0.0,0.0,0.0,0.0,0.0,0.0,0.0,0.0,0.0,0.0,0.0,0.0,0.0,0.0,0.0,0.0,0.0,0.0,0.0,0.0,0.0,0.0,0.0,0.0,0.0,0.0,0.0,0.0
26703000000,9306,26699000000,odom,base_footprint,4.922397066420628e-07,1.5690633017901847e-05,-0.0010073991459968283,-1.7391125181911128e-06,0.00158965031927923,4.8685071504039295e-05,0.9999987353185011,1e-05,0.0,0.0,0.0,0.0,0.0,0.0,1e-05,0.0,0.0,0.0,0.0,0.0,0.0,1000000000000.0,0.0,0.0,0.0,0.0,0.0,0.0,1000000000000.0,0.0,0.0,0.0,0.0,0.0,0.0,1000000000000.0,0.0,0.0,0.0,0.0,0.0,0.0,0.001,6.409400967798905e-07,1.1831400784084112e-06,0.0,0.0,0.0,7.672119785492821e-06,0.0,0.0,0.0,0.0,0.0,0.0,0.0,0.0,0.0,0.0,0.0,0.0,0.0,0.0,0.0,0.0,0.0,0.0,0.0,0.0,0.0,0.0,0.0,0.0,0.0,0.0,0.0,0.0,0.0,0.0,0.0,0.0,0.0,0.0,0.0,0.0
26735000000,9307,26721000000,odom,base_footprint,4.994011315543473e-07,1.571036045170329e-05,-0.0010073991460046207,-1.7392109653005481e-06,0.001589650319197157,4.8747021034558026e-05,0.9999987353154832,1e-05,0.0,0.0,0.0,0.0,0.0,0.0,1e-05,0.0,0.0,0.0,0.0,0.0,0.0,1000000000000.0,0.0,0.0,0.0,0.0,0.0,0.0,1000000000000.0,0.0,0.0,0.0,0.0,0.0,0.0,1000000000000.0,0.0,0.0,0.0,0.0,0.0,0.0,0.001,6.409436184584216e-07,1.1831504869594945e-06,0.0,0.0,0.0,7.672184453321747e-06,0.0,0.0,0.0,0.0,0.0,0.0,0.0,0.0,0.0,0.0,0.0,0.0,0.0,0.0,0.0,0.0,0.0,0.0,0.0,0.0,0.0,0.0,0.0,0.0,0.0,0.0,0.0,0.0,0.0,0.0,0.0,0.0,0.0,0.0,0.0,0.0
26768000000,9308,26766000000,odom,base_footprint,5.063519387888196e-07,1.5729507708712157e-05,-0.0010073991460121806,-1.7393065171048005e-06,0.0015896503191175006,4.880714865059759e-05,0.9999987353125503,1e-05,0.0,0.0,0.0,0.0,0.0,0.0,1e-05,0.0,0.0,0.0,0.0,0.0,0.0,1000000000000.0,0.0,0.0,0.0,0.0,0.0,0.0,1000000000000.0,0.0,0.0,0.0,0.0,0.0,0.0,1000000000000.0,0.0,0.0,0.0,0.0,0.0,0.0,0.001,6.40947033685185e-07,1.1831605806349673e-06,0.0,0.0,0.0,7.67224716533742e-06,0.0,0.0,0.0,0.0,0.0,0.0,0.0,0.0,0.0,0.0,0.0,0.0,0.0,0.0,0.0,0.0,0.0,0.0,0.0,0.0,0.0,0.0,0.0,0.0,0.0,0.0,0.0,0.0,0.0,0.0,0.0,0.0,0.0,0.0,0.0,0.0
26799000000,9309,26799000000,odom,base_footprint,5.133027583372266e-07,1.5748655007030994e-05,-0.0010073991460197475,-1.739402069101879e-06,0.0015896503190378547,4.886727639549012e-05,0.9999987353096139,1e-05,0.0,0.0,0.0,0.0,0.0,0.0,1e-05,0.0,0.0,0.0,0.0,0.0,0.0,1000000000000.0,0.0,0.0,0.0,0.0,0.0,0.0,1000000000000.0,0.0,0.0,0.0,0.0,0.0,0.0,1000000000000.0,0.0,0.0,0.0,0.0,0.0,0.0,0.001,6.409504520632954e-07,1.1831706840408066e-06,0.0,0.0,0.0,7.672309937135395e-06,0.0,0.0,0.0,0.0,0.0,0.0,0.0,0.0,0.0,0.0,0.0,0.0,0.0,0.0,0.0,0.0,0.0,0.0,0.0,0.0,0.0,0.0,0.0,0.0,0.0,0.0,0.0,0.0,0.0,0.0,0.0,0.0,0.0,0.0,0.0,0.0
26834000000,9310,26830000000,odom,base_footprint,5.204642216267985e-07,1.576838256964842e-05,-0.0010073991460275364,-1.7395005168323797e-06,0.001589650318955782,4.892922632781356e-05,0.9999987353065845,1e-05,0.0,0.0,0.0,0.0,0.0,0.0,1e-05,0.0,0.0,0.0,0.0,0.0,0.0,1000000000000.0,0.0,0.0,0.0,0.0,0.0,0.0,1000000000000.0,0.0,0.0,0.0,0.0,0.0,0.0,1000000000000.0,0.0,0.0,0.0,0.0,0.0,0.0,0.001,6.409539726542394e-07,1.1831810893549552e-06,0.0,0.0,0.0,7.672374584665244e-06,0.0,0.0,0.0,0.0,0.0,0.0,0.0,0.0,0.0,0.0,0.0,0.0,0.0,0.0,0.0,0.0,0.0,0.0,0.0,0.0,0.0,0.0,0.0,0.0,0.0,0.0,0.0,0.0,0.0,0.0,0.0,0.0,0.0,0.0,0.0,0.0
26867000000,9311,26867000000,odom,base_footprint,5.274150661153248e-07,1.578752995168337e-05,-0.0010073991460350998,-1.7395960692717691e-06,0.0015896503188761047,4.8989354333836545e-05,0.9999987353036406,1e-05,0.0,0.0,0.0,0.0,0.0,0.0,1e-05,0.0,0.0,0.0,0.0,0.0,0.0,1000000000000.0,0.0,0.0,0.0,0.0,0.0,0.0,1000000000000.0,0.0,0.0,0.0,0.0,0.0,0.0,1000000000000.0,0.0,0.0,0.0,0.0,0.0,0.0,0.001,6.40957388815679e-07,1.183191185961748e-06,0.0,0.0,0.0,7.672437314709644e-06,0.0,0.0,0.0,0.0,0.0,0.0,0.0,0.0,0.0,0.0,0.0,0.0,0.0,0.0,0.0,0.0,0.0,0.0,0.0,0.0,0.0,0.0,0.0,0.0,0.0,0.0,0.0,0.0,0.0,0.0,0.0,0.0,0.0,0.0,0.0,0.0
26901000000,9312,26898000000,odom,base_footprint,5.343659228987038e-07,1.580667737497998e-05,-0.0010073991460426597,-1.7396916219045912e-06,0.0015896503187964263,4.9049482468563396e-05,0.9999987353006932,1e-05,0.0,0.0,0.0,0.0,0.0,0.0,1e-05,0.0,0.0,0.0,0.0,0.0,0.0,1000000000000.0,0.0,0.0,0.0,0.0,0.0,0.0,1000000000000.0,0.0,0.0,0.0,0.0,0.0,0.0,1000000000000.0,0.0,0.0,0.0,0.0,0.0,0.0,0.001,6.409608054858947e-07,1.1832012840890432e-06,0.0,0.0,0.0,7.672500054044458e-06,0.0,0.0,0.0,0.0,0.0,0.0,0.0,0.0,0.0,0.0,0.0,0.0,0.0,0.0,0.0,0.0,0.0,0.0,0.0,0.0,0.0,0.0,0.0,0.0,0.0,0.0,0.0,0.0,0.0,0.0,0.0,0.0,0.0,0.0,0.0,0.0
26933000000,9313,26933000000,odom,base_footprint,5.41527424567298e-07,1.5826405066391284e-05,-0.001007399146050452,-1.7397900702829088e-06,0.001589650318714327,4.911143280262351e-05,0.9999987352976526,1e-05,0.0,0.0,0.0,0.0,0.0,0.0,1e-05,0.0,0.0,0.0,0.0,0.0,0.0,1000000000000.0,0.0,0.0,0.0,0.0,0.0,0.0,1000000000000.0,0.0,0.0,0.0,0.0,0.0,0.0,1000000000000.0,0.0,0.0,0.0,0.0,0.0,0.0,0.001,6.409643265193385e-07,1.183211690704357e-06,0.0,0.0,0.0,7.672564709914962e-06,0.0,0.0,0.0,0.0,0.0,0.0,0.0,0.0,0.0,0.0,0.0,0.0,0.0,0.0,0.0,0.0,0.0,0.0,0.0,0.0,0.0,0.0,0.0,0.0,0.0,0.0,0.0,0.0,0.0,0.0,0.0,0.0,0.0,0.0,0.0,0.0
26967000000,9314,26967000000,odom,base_footprint,5.484783063098783e-07,1.5845552573457394e-05,-0.0010073991460580155,-1.7398856233339547e-06,0.0015896503186346477,4.9171561198645484e-05,0.9999987352946976,1e-05,0.0,0.0,0.0,0.0,0.0,0.0,1e-05,0.0,0.0,0.0,0.0,0.0,0.0,1000000000000.0,0.0,0.0,0.0,0.0,0.0,0.0,1000000000000.0,0.0,0.0,0.0,0.0,0.0,0.0,1000000000000.0,0.0,0.0,0.0,0.0,0.0,0.0,0.001,6.409677435266926e-07,1.1832217899021758e-06,0.0,0.0,0.0,7.672627455864234e-06,0.0,0.0,0.0,0.0,0.0,0.0,0.0,0.0,0.0,0.0,0.0,0.0,0.0,0.0,0.0,0.0,0.0,0.0,0.0,0.0,0.0,0.0,0.0,0.0,0.0,0.0,0.0,0.0,0.0,0.0,0.0,0.0,0.0,0.0,0.0,0.0
26991000000,9315,27000000000,odom,base_footprint,5.554292003447092e-07,1.5864700121777033e-05,-0.0010073991460655893,-1.7399811765713995e-06,0.0015896503185549662,4.923168972334621e-05,0.9999987352917392,1e-05,0.0,0.0,0.0,0.0,0.0,0.0,1e-05,0.0,0.0,0.0,0.0,0.0,0.0,1000000000000.0,0.0,0.0,0.0,0.0,0.0,0.0,1000000000000.0,0.0,0.0,0.0,0.0,0.0,0.0,1000000000000.0,0.0,0.0,0.0,0.0,0.0,0.0,0.001,6.409711602874117e-07,1.1832318882764025e-06,0.0,0.0,0.0,7.672690196639937e-06,0.0,0.0,0.0,0.0,0.0,0.0,0.0,0.0,0.0,0.0,0.0,0.0,0.0,0.0,0.0,0.0,0.0,0.0,0.0,0.0,0.0,0.0,0.0,0.0,0.0,0.0,0.0,0.0,0.0,0.0,0.0,0.0,0.0,0.0,0.0,0.0
27034000000,9316,27033000000,odom,base_footprint,5.625907403914582e-07,1.5884427941992927e-05,-0.0010073991460733712,-1.7400796255896603e-06,0.001589650318472826,4.929364045917602e-05,0.9999987352886873,1e-05,0.0,0.0,0.0,0.0,0.0,0.0,1e-05,0.0,0.0,0.0,0.0,0.0,0.0,1000000000000.0,0.0,0.0,0.0,0.0,0.0,0.0,1000000000000.0,0.0,0.0,0.0,0.0,0.0,0.0,1000000000000.0,0.0,0.0,0.0,0.0,0.0,0.0,0.001,6.40974681195638e-07,1.183242294556242e-06,0.0,0.0,0.0,7.672754850470588e-06,0.0,0.0,0.0,0.0,0.0,0.0,0.0,0.0,0.0,0.0,0.0,0.0,0.0,0.0,0.0,0.0,0.0,0.0,0.0,0.0,0.0,0.0,0.0,0.0,0.0,0.0,0.0,0.0,0.0,0.0,0.0,0.0,0.0,0.0,0.0,0.0
27066000000,9317,27066000000,odom,base_footprint,5.695416593846231e-07,1.5903575574073893e-05,-0.001007399146080945,-1.740175179253355e-06,0.0015896503183931573,4.935376924514669e-05,0.9999987352857216,1e-05,0.0,0.0,0.0,0.0,0.0,0.0,1e-05,0.0,0.0,0.0,0.0,0.0,0.0,1000000000000.0,0.0,0.0,0.0,0.0,0.0,0.0,1000000000000.0,0.0,0.0,0.0,0.0,0.0,0.0,1000000000000.0,0.0,0.0,0.0,0.0,0.0,0.0,0.001,6.409780977759719e-07,1.1832523924192458e-06,0.0,0.0,0.0,7.672817588297643e-06,0.0,0.0,0.0,0.0,0.0,0.0,0.0,0.0,0.0,0.0,0.0,0.0,0.0,0.0,0.0,0.0,0.0,0.0,0.0,0.0,0.0,0.0,0.0,0.0,0.0,0.0,0.0,0.0,0.0,0.0,0.0,0.0,0.0,0.0,0.0,0.0
27100000000,9318,27100000000,odom,base_footprint,5.764925906813143e-07,1.592272324744574e-05,-0.0010073991460885084,-1.7402707331275002e-06,0.0015896503183134298,4.941389815991139e-05,0.9999987352827522,1e-05,0.0,0.0,0.0,0.0,0.0,0.0,1e-05,0.0,0.0,0.0,0.0,0.0,0.0,1000000000000.0,0.0,0.0,0.0,0.0,0.0,0.0,1000000000000.0,0.0,0.0,0.0,0.0,0.0,0.0,1000000000000.0,0.0,0.0,0.0,0.0,0.0,0.0,0.001,6.409815154331153e-07,1.1832624934728497e-06,0.0,0.0,0.0,7.67288034575006e-06,0.0,0.0,0.0,0.0,0.0,0.0,0.0,0.0,0.0,0.0,0.0,0.0,0.0,0.0,0.0,0.0,0.0,0.0,0.0,0.0,0.0,0.0,0.0,0.0,0.0,0.0,0.0,0.0,0.0,0.0,0.0,0.0,0.0,0.0,0.0,0.0
27134000000,9319,27133000000,odom,base_footprint,5.836541691018812e-07,1.5942451196462033e-05,-0.0010073991460963147,-1.7403691827621123e-06,0.001589650318231328,4.9475849297497824e-05,0.9999987352796889,1e-05,0.0,0.0,0.0,0.0,0.0,0.0,1e-05,0.0,0.0,0.0,0.0,0.0,0.0,1000000000000.0,0.0,0.0,0.0,0.0,0.0,0.0,1000000000000.0,0.0,0.0,0.0,0.0,0.0,0.0,1000000000000.0,0.0,0.0,0.0,0.0,0.0,0.0,0.001,6.40985035621327e-07,1.183272897676291e-06,0.0,0.0,0.0,7.672944986642255e-06,0.0,0.0,0.0,0.0,0.0,0.0,0.0,0.0,0.0,0.0,0.0,0.0,0.0,0.0,0.0,0.0,0.0,0.0,0.0,0.0,0.0,0.0,0.0,0.0,0.0,0.0,0.0,0.0,0.0,0.0,0.0,0.0,0.0,0.0,0.0,0.0
27167000000,9320,27166000000,odom,base_footprint,5.906051253386918e-07,1.5961598953552918e-05,-0.0010073991461038677,-1.7404647370239964e-06,0.0015896503181515914,4.9535978473401864e-05,0.9999987352767121,1e-05,0.0,0.0,0.0,0.0,0.0,0.0,1e-05,0.0,0.0,0.0,0.0,0.0,0.0,1000000000000.0,0.0,0.0,0.0,0.0,0.0,0.0,1000000000000.0,0.0,0.0,0.0,0.0,0.0,0.0,1000000000000.0,0.0,0.0,0.0,0.0,0.0,0.0,0.001,6.409884533416497e-07,1.1832829988962402e-06,0.0,0.0,0.0,7.673007744997608e-06,0.0,0.0,0.0,0.0,0.0,0.0,0.0,0.0,0.0,0.0,0.0,0.0,0.0,0.0,0.0,0.0,0.0,0.0,0.0,0.0,0.0,0.0,0.0,0.0,0.0,0.0,0.0,0.0,0.0,0.0,0.0,0.0,0.0,0.0,0.0,0.0
27200000000,9321,27200000000,odom,base_footprint,5.975560938764266e-07,1.5980746751914624e-05,-0.0010073991461114346,-1.740560291520201e-06,0.0015896503180718702,4.9596107778038214e-05,0.9999987352737317,1e-05,0.0,0.0,0.0,0.0,0.0,0.0,1e-05,0.0,0.0,0.0,0.0,0.0,0.0,1000000000000.0,0.0,0.0,0.0,0.0,0.0,0.0,1000000000000.0,0.0,0.0,0.0,0.0,0.0,0.0,1000000000000.0,0.0,0.0,0.0,0.0,0.0,0.0,0.001,6.409918699088588e-07,1.183293096775669e-06,0.0,0.0,0.0,7.673070482865806e-06,0.0,0.0,0.0,0.0,0.0,0.0,0.0,0.0,0.0,0.0,0.0,0.0,0.0,0.0,0.0,0.0,0.0,0.0,0.0,0.0,0.0,0.0,0.0,0.0,0.0,0.0,0.0,0.0,0.0,0.0,0.0,0.0,0.0,0.0,0.0,0.0
27232000000,9322,27233000000,odom,base_footprint,6.047177106638726e-07,1.6000474829699867e-05,-0.0010073991461192339,-1.7406587418164234e-06,0.0015896503179897293,4.96580593172845e-05,0.9999987352706571,1e-05,0.0,0.0,0.0,0.0,0.0,0.0,1e-05,0.0,0.0,0.0,0.0,0.0,0.0,1000000000000.0,0.0,0.0,0.0,0.0,0.0,0.0,1000000000000.0,0.0,0.0,0.0,0.0,0.0,0.0,1000000000000.0,0.0,0.0,0.0,0.0,0.0,0.0,0.001,6.409953901326074e-07,1.1833035008121874e-06,0.0,0.0,0.0,7.67313512303582e-06,0.0,0.0,0.0,0.0,0.0,0.0,0.0,0.0,0.0,0.0,0.0,0.0,0.0,0.0,0.0,0.0,0.0,0.0,0.0,0.0,0.0,0.0,0.0,0.0,0.0,0.0,0.0,0.0,0.0,0.0,0.0,0.0,0.0,0.0,0.0,0.0
27270000000,9323,27265000000,odom,base_footprint,6.116687041512678e-07,1.601962271179948e-05,-0.0010073991461267938,-1.7407542967043053e-06,0.0015896503179099804,4.971818888311836e-05,0.9999987352676694,1e-05,0.0,0.0,0.0,0.0,0.0,0.0,1e-05,0.0,0.0,0.0,0.0,0.0,0.0,1000000000000.0,0.0,0.0,0.0,0.0,0.0,0.0,1000000000000.0,0.0,0.0,0.0,0.0,0.0,0.0,1000000000000.0,0.0,0.0,0.0,0.0,0.0,0.0,0.001,6.409988071002764e-07,1.1833135998308494e-06,0.0,0.0,0.0,7.673197867875506e-06,0.0,0.0,0.0,0.0,0.0,0.0,0.0,0.0,0.0,0.0,0.0,0.0,0.0,0.0,0.0,0.0,0.0,0.0,0.0,0.0,0.0,0.0,0.0,0.0,0.0,0.0,0.0,0.0,0.0,0.0,0.0,0.0,0.0,0.0,0.0,0.0
27299000000,9324,27298000000,odom,base_footprint,6.18619709936985e-07,1.6038770635170154e-05,-0.0010073991461343676,-1.7408498517997776e-06,0.0015896503178302595,4.977831857768522e-05,0.999998735264678,1e-05,0.0,0.0,0.0,0.0,0.0,0.0,1e-05,0.0,0.0,0.0,0.0,0.0,0.0,1000000000000.0,0.0,0.0,0.0,0.0,0.0,0.0,1000000000000.0,0.0,0.0,0.0,0.0,0.0,0.0,1000000000000.0,0.0,0.0,0.0,0.0,0.0,0.0,0.001,6.410022240831978e-07,1.1833236990296862e-06,0.0,0.0,0.0,7.673260613775056e-06,0.0,0.0,0.0,0.0,0.0,0.0,0.0,0.0,0.0,0.0,0.0,0.0,0.0,0.0,0.0,0.0,0.0,0.0,0.0,0.0,0.0,0.0,0.0,0.0,0.0,0.0,0.0,0.0,0.0,0.0,0.0,0.0,0.0,0.0,0.0,0.0
27334000000,9325,27333000000,odom,base_footprint,6.257813651312089e-07,1.6058498841841645e-05,-0.001007399146142153,-1.7409483027190207e-06,0.00158965031774809,4.984027051895306e-05,0.9999987352615922,1e-05,0.0,0.0,0.0,0.0,0.0,0.0,1e-05,0.0,0.0,0.0,0.0,0.0,0.0,1000000000000.0,0.0,0.0,0.0,0.0,0.0,0.0,1000000000000.0,0.0,0.0,0.0,0.0,0.0,0.0,1000000000000.0,0.0,0.0,0.0,0.0,0.0,0.0,0.001,6.410057438300313e-07,1.1833341017663714e-06,0.0,0.0,0.0,7.673325245825885e-06,0.0,0.0,0.0,0.0,0.0,0.0,0.0,0.0,0.0,0.0,0.0,0.0,0.0,0.0,0.0,0.0,0.0,0.0,0.0,0.0,0.0,0.0,0.0,0.0,0.0,0.0,0.0,0.0,0.0,0.0,0.0,0.0,0.0,0.0,0.0,0.0
27367000000,9326,27367000000,odom,base_footprint,6.327323958752601e-07,1.607764684897907e-05,-0.0010073991461497268,-1.7410438582290993e-06,0.001589650317668355,4.9900400474806495e-05,0.9999987352585935,1e-05,0.0,0.0,0.0,0.0,0.0,0.0,1e-05,0.0,0.0,0.0,0.0,0.0,0.0,1000000000000.0,0.0,0.0,0.0,0.0,0.0,0.0,1000000000000.0,0.0,0.0,0.0,0.0,0.0,0.0,1000000000000.0,0.0,0.0,0.0,0.0,0.0,0.0,0.001,6.410091617030176e-07,1.1833442034908072e-06,0.0,0.0,0.0,7.673388007447853e-06,0.0,0.0,0.0,0.0,0.0,0.0,0.0,0.0,0.0,0.0,0.0,0.0,0.0,0.0,0.0,0.0,0.0,0.0,0.0,0.0,0.0,0.0,0.0,0.0,0.0,0.0,0.0,0.0,0.0,0.0,0.0,0.0,0.0,0.0,0.0,0.0
27400000000,9327,27400000000,odom,base_footprint,6.396834388985514e-07,1.6096794897333784e-05,-0.0010073991461572937,-1.7411394139497313e-06,0.0015896503175886086,4.9960530559227e-05,0.999998735255591,1e-05,0.0,0.0,0.0,0.0,0.0,0.0,1e-05,0.0,0.0,0.0,0.0,0.0,0.0,1000000000000.0,0.0,0.0,0.0,0.0,0.0,0.0,1000000000000.0,0.0,0.0,0.0,0.0,0.0,0.0,1000000000000.0,0.0,0.0,0.0,0.0,0.0,0.0,0.001,6.410125788266602e-07,1.183354302968477e-06,0.0,0.0,0.0,7.673450755172233e-06,0.0,0.0,0.0,0.0,0.0,0.0,0.0,0.0,0.0,0.0,0.0,0.0,0.0,0.0,0.0,0.0,0.0,0.0,0.0,0.0,0.0,0.0,0.0,0.0,0.0,0.0,0.0,0.0,0.0,0.0,0.0,0.0,0.0,0.0,0.0,0.0
27434000000,9328,27432000000,odom,base_footprint,6.468451324440419e-07,1.6116523232730586e-05,-0.001007399146165093,-1.7412378655069818e-06,0.0015896503175064235,5.0022482902019956e-05,0.9999987352524939,1e-05,0.0,0.0,0.0,0.0,0.0,0.0,1e-05,0.0,0.0,0.0,0.0,0.0,0.0,1000000000000.0,0.0,0.0,0.0,0.0,0.0,0.0,1000000000000.0,0.0,0.0,0.0,0.0,0.0,0.0,1000000000000.0,0.0,0.0,0.0,0.0,0.0,0.0,0.001,6.410160991426862e-07,1.183364707438668e-06,0.0,0.0,0.0,7.673515397852739e-06,0.0,0.0,0.0,0.0,0.0,0.0,0.0,0.0,0.0,0.0,0.0,0.0,0.0,0.0,0.0,0.0,0.0,0.0,0.0,0.0,0.0,0.0,0.0,0.0,0.0,0.0,0.0,0.0,0.0,0.0,0.0,0.0,0.0,0.0,0.0,0.0
27468000000,9329,27467000000,odom,base_footprint,6.537962004317388e-07,1.6135671364873875e-05,-0.0010073991461726634,-1.7413334216429096e-06,0.001589650317426671,5.008261324779441e-05,0.9999987352494842,1e-05,0.0,0.0,0.0,0.0,0.0,0.0,1e-05,0.0,0.0,0.0,0.0,0.0,0.0,1000000000000.0,0.0,0.0,0.0,0.0,0.0,0.0,1000000000000.0,0.0,0.0,0.0,0.0,0.0,0.0,1000000000000.0,0.0,0.0,0.0,0.0,0.0,0.0,0.001,6.41019516348059e-07,1.1833748072150432e-06,0.0,0.0,0.0,7.673578147406842e-06,0.0,0.0,0.0,0.0,0.0,0.0,0.0,0.0,0.0,0.0,0.0,0.0,0.0,0.0,0.0,0.0,0.0,0.0,0.0,0.0,0.0,0.0,0.0,0.0,0.0,0.0,0.0,0.0,0.0,0.0,0.0,0.0,0.0,0.0,0.0,0.0
27510000000,9330,27489000000,odom,base_footprint,6.607472807073494e-07,1.6154819538253997e-05,-0.0010073991461802302,-1.7414289779626326e-06,0.0015896503173468833,5.0142743722196094e-05,0.999998735246471,1e-05,0.0,0.0,0.0,0.0,0.0,0.0,1e-05,0.0,0.0,0.0,0.0,0.0,0.0,1000000000000.0,0.0,0.0,0.0,0.0,0.0,0.0,1000000000000.0,0.0,0.0,0.0,0.0,0.0,0.0,1000000000000.0,0.0,0.0,0.0,0.0,0.0,0.0,0.001,6.410229334321368e-07,1.183384906560752e-06,0.0,0.0,0.0,7.67364089442177e-06,0.0,0.0,0.0,0.0,0.0,0.0,0.0,0.0,0.0,0.0,0.0,0.0,0.0,0.0,0.0,0.0,0.0,0.0,0.0,0.0,0.0,0.0,0.0,0.0,0.0,0.0,0.0,0.0,0.0,0.0,0.0,0.0,0.0,0.0,0.0,0.0
27534000000,9331,27533000000,odom,base_footprint,6.679090126396683e-07,1.6174548002476186e-05,-0.001007399146188033,-1.7415274301528703e-06,0.0015896503172647127,5.02046964668229e-05,0.9999987352433624,1e-05,0.0,0.0,0.0,0.0,0.0,0.0,1e-05,0.0,0.0,0.0,0.0,0.0,0.0,1000000000000.0,0.0,0.0,0.0,0.0,0.0,0.0,1000000000000.0,0.0,0.0,0.0,0.0,0.0,0.0,1000000000000.0,0.0,0.0,0.0,0.0,0.0,0.0,0.001,6.410264535572365e-07,1.1833953104950112e-06,0.0,0.0,0.0,7.673705533710897e-06,0.0,0.0,0.0,0.0,0.0,0.0,0.0,0.0,0.0,0.0,0.0,0.0,0.0,0.0,0.0,0.0,0.0,0.0,0.0,0.0,0.0,0.0,0.0,0.0,0.0,0.0,0.0,0.0,0.0,0.0,0.0,0.0,0.0,0.0,0.0,0.0
27567000000,9332,27567000000,odom,base_footprint,6.748601178805519e-07,1.6193696259642615e-05,-0.0010073991461955999,-1.741622986907131e-06,0.0015896503171849426,5.026482720257169e-05,0.9999987352403417,1e-05,0.0,0.0,0.0,0.0,0.0,0.0,1e-05,0.0,0.0,0.0,0.0,0.0,0.0,1000000000000.0,0.0,0.0,0.0,0.0,0.0,0.0,1000000000000.0,0.0,0.0,0.0,0.0,0.0,0.0,1000000000000.0,0.0,0.0,0.0,0.0,0.0,0.0,0.001,6.410298707242273e-07,1.1834054100822557e-06,0.0,0.0,0.0,7.673768282117767e-06,0.0,0.0,0.0,0.0,0.0,0.0,0.0,0.0,0.0,0.0,0.0,0.0,0.0,0.0,0.0,0.0,0.0,0.0,0.0,0.0,0.0,0.0,0.0,0.0,0.0,0.0,0.0,0.0,0.0,0.0,0.0,0.0,0.0,0.0,0.0,0.0
27621000000,9333,27586000000,odom,base_footprint,6.818112354015429e-07,1.6212844558036102e-05,-0.0010073991462031702,-1.7417185438698378e-06,0.0015896503171051364,5.032495806691768e-05,0.9999987352373174,1e-05,0.0,0.0,0.0,0.0,0.0,0.0,1e-05,0.0,0.0,0.0,0.0,0.0,0.0,1000000000000.0,0.0,0.0,0.0,0.0,0.0,0.0,1000000000000.0,0.0,0.0,0.0,0.0,0.0,0.0,1000000000000.0,0.0,0.0,0.0,0.0,0.0,0.0,0.001,6.410332880501597e-07,1.183415510130241e-06,0.0,0.0,0.0,7.673831033571228e-06,0.0,0.0,0.0,0.0,0.0,0.0,0.0,0.0,0.0,0.0,0.0,0.0,0.0,0.0,0.0,0.0,0.0,0.0,0.0,0.0,0.0,0.0,0.0,0.0,0.0,0.0,0.0,0.0,0.0,0.0,0.0,0.0,0.0,0.0,0.0,0.0
27634000000,9334,27633000000,odom,base_footprint,6.889730056955368e-07,1.6232573151032182e-05,-0.001007399146210966,-1.7418169966888475e-06,0.00158965031702295,5.038691121321942e-05,0.9999987352341977,1e-05,0.0,0.0,0.0,0.0,0.0,0.0,1e-05,0.0,0.0,0.0,0.0,0.0,0.0,1000000000000.0,0.0,0.0,0.0,0.0,0.0,0.0,1000000000000.0,0.0,0.0,0.0,0.0,0.0,0.0,1000000000000.0,0.0,0.0,0.0,0.0,0.0,0.0,0.001,6.410368087136372e-07,1.1834259157205138e-06,0.0,0.0,0.0,7.673895683119449e-06,0.0,0.0,0.0,0.0,0.0,0.0,0.0,0.0,0.0,0.0,0.0,0.0,0.0,0.0,0.0,0.0,0.0,0.0,0.0,0.0,0.0,0.0,0.0,0.0,0.0,0.0,0.0,0.0,0.0,0.0,0.0,0.0,0.0,0.0,0.0,0.0
27664000000,9335,27664000000,odom,base_footprint,6.959241481722597e-07,1.625172153318399e-05,-0.0010073991462185294,-1.741912554073303e-06,0.0015896503169431334,5.044704233882607e-05,0.9999987352311661,1e-05,0.0,0.0,0.0,0.0,0.0,0.0,1e-05,0.0,0.0,0.0,0.0,0.0,0.0,1000000000000.0,0.0,0.0,0.0,0.0,0.0,0.0,1000000000000.0,0.0,0.0,0.0,0.0,0.0,0.0,1000000000000.0,0.0,0.0,0.0,0.0,0.0,0.0,0.001,6.410402254786028e-07,1.1834360140858258e-06,0.0,0.0,0.0,7.673958424047461e-06,0.0,0.0,0.0,0.0,0.0,0.0,0.0,0.0,0.0,0.0,0.0,0.0,0.0,0.0,0.0,0.0,0.0,0.0,0.0,0.0,0.0,0.0,0.0,0.0,0.0,0.0,0.0,0.0,0.0,0.0,0.0,0.0,0.0,0.0,0.0,0.0
27700000000,9336,27699000000,odom,base_footprint,7.028753029525089e-07,1.627086995662936e-05,-0.0010073991462261067,-1.7420081116230144e-06,0.0015896503168633476,5.050717359323491e-05,0.9999987352281309,1e-05,0.0,0.0,0.0,0.0,0.0,0.0,1e-05,0.0,0.0,0.0,0.0,0.0,0.0,1000000000000.0,0.0,0.0,0.0,0.0,0.0,0.0,1000000000000.0,0.0,0.0,0.0,0.0,0.0,0.0,1000000000000.0,0.0,0.0,0.0,0.0,0.0,0.0,0.001,6.410436435408466e-07,1.1834461164299736e-06,0.0,0.0,0.0,7.674021189542225e-06,0.0,0.0,0.0,0.0,0.0,0.0,0.0,0.0,0.0,0.0,0.0,0.0,0.0,0.0,0.0,0.0,0.0,0.0,0.0,0.0,0.0,0.0,0.0,0.0,0.0,0.0,0.0,0.0,0.0,0.0,0.0,0.0,0.0,0.0,0.0,0.0
27734000000,9337,27733000000,odom,base_footprint,7.100371116437396e-07,1.629059867846841e-05,-0.0010073991462339164,-1.7421065650830082e-06,0.0015896503167811523,5.0569127141424806e-05,0.9999987352249996,1e-05,0.0,0.0,0.0,0.0,0.0,0.0,1e-05,0.0,0.0,0.0,0.0,0.0,0.0,1000000000000.0,0.0,0.0,0.0,0.0,0.0,0.0,1000000000000.0,0.0,0.0,0.0,0.0,0.0,0.0,1000000000000.0,0.0,0.0,0.0,0.0,0.0,0.0,0.001,6.410471636772787e-07,1.183456520350903e-06,0.0,0.0,0.0,7.674085828724807e-06,0.0,0.0,0.0,0.0,0.0,0.0,0.0,0.0,0.0,0.0,0.0,0.0,0.0,0.0,0.0,0.0,0.0,0.0,0.0,0.0,0.0,0.0,0.0,0.0,0.0,0.0,0.0,0.0,0.0,0.0,0.0,0.0,0.0,0.0,0.0,0.0
